
$GPGGA,040653.000,4332.0696,S,17235.0755,E,2,08,1.1,18.1,M,11.3,M,,0000*7F
$GPGSA,A,3,20,31,32,03,16,13,23,06,,,,,2.1,1.1,1.8*38
$GPRMC,040653.000,A,4332.0696,S,17235.0755,E,0.09,359.51,311010,,*10
$GPGGA,040654.000,4332.0696,S,17235.0755,E,2,08,1.1,18.1,M,11.3,M,1.8,0000*5F
$GPGSA,A,3,20,31,32,03,16,13,23,06,,,,,2.1,1.1,1.8*38
$GPRMC,040654.000,A,4332.0696,S,17235.0755,E,0.09,2.14,311010,,*1B
$GPGGA,040655.000,4332.0696,S,17235.0756,E,2,08,1.1,18.1,M,11.3,M,,0000*7A
$GPGSA,A,3,20,31,32,03,16,13,23,06,,,,,2.1,1.1,1.8*38
$GPGSV,3,1,11,16,70,077,47,23,68,228,41,20,37,322,36,13,35,231,44*7E
$GPGSV,3,2,11,32,27,351,41,31,25,111,34,06,17,044,33,03,15,031,39*72
$GPGSV,3,3,11,07,07,277,,29,06,146,20,42,30,317,39*4D
$GPRMC,040655.000,A,4332.0696,S,17235.0756,E,0.08,9.76,311010,,*17
$GPGGA,040656.000,4332.0696,S,17235.0756,E,2,08,1.1,18.1,M,11.3,M,,0000*79
$GPGSA,A,3,20,31,32,03,16,13,23,06,,,,,2.1,1.1,1.8*38
$GPRMC,040656.000,A,4332.0696,S,17235.0756,E,0.08,3.98,311010,,*1E
$GPGGA,040657.000,4332.0696,S,17235.0756,E,2,08,1.1,18.1,M,11.3,M,,0000*78
$GPGSA,A,3,20,31,32,03,16,13,23,06,,,,,2.1,1.1,1.8*38
$GPRMC,040657.000,A,4332.0696,S,17235.0756,E,0.14,347.67,311010,,*11
$GPGGA,040658.000,4332.0696,S,17235.0756,E,2,08,1.1,18.1,M,11.3,M,,0000*77
$GPGSA,A,3,20,31,32,03,16,13,23,06,,,,,2.1,1.1,1.8*38
$GPRMC,040658.000,A,4332.0696,S,17235.0756,E,0.14,351.25,311010,,*1F
$GPGGA,040659.000,4332.0696,S,17235.0756,E,2,08,1.1,18.1,M,11.3,M,1.8,0000*51
$GPGSA,A,3,20,31,32,03,16,13,23,06,,,,,2.1,1.1,1.8*38
$GPRMC,040659.000,A,4332.0696,S,17235.0756,E,0.15,348.30,311010,,*13
$GPGGA,040700.000,4332.0696,S,17235.0755,E,2,08,1.1,18.1,M,11.3,M,2.8,0000*5C
$GPGSA,A,3,20,31,32,03,16,13,23,06,,,,,2.1,1.1,1.8*38
$GPGSV,3,1,11,16,70,077,48,23,68,228,41,20,37,322,36,13,35,231,44*71
$GPGSV,3,2,11,32,27,351,41,31,25,111,34,06,17,044,32,03,15,031,38*72
$GPGSV,3,3,11,07,07,277,,29,06,146,21,42,30,317,39*4C
$GPRMC,040700.000,A,4332.0696,S,17235.0755,E,0.15,347.64,311010,,*13
$GPGGA,040701.000,4332.0696,S,17235.0755,E,2,08,1.1,18.1,M,11.3,M,,0000*79
$GPGSA,A,3,20,31,32,03,16,13,23,06,,,,,2.1,1.1,1.8*38
$GPRMC,040701.000,A,4332.0696,S,17235.0755,E,0.15,345.27,311010,,*17
$GPGGA,040702.000,4332.0695,S,17235.0755,E,2,08,1.1,18.2,M,11.3,M,,0000*7A
$GPGSA,A,3,20,31,32,03,16,13,23,06,,,,,2.1,1.1,1.8*38
$GPRMC,040702.000,A,4332.0695,S,17235.0755,E,0.15,348.76,311010,,*1E
$GPGGA,040703.000,4332.0695,S,17235.0755,E,2,08,1.1,18.2,M,11.3,M,,0000*7B
$GPGSA,A,3,20,31,32,03,16,13,23,06,,,,,2.1,1.1,1.8*38
$GPRMC,040703.000,A,4332.0695,S,17235.0755,E,0.09,355.16,311010,,*18
$GPGGA,040704.000,4332.0696,S,17235.0755,E,2,08,1.1,18.2,M,11.3,M,1.8,0000*58
$GPGSA,A,3,20,31,32,03,16,13,23,06,,,,,2.1,1.1,1.8*38
$GPRMC,040704.000,A,4332.0696,S,17235.0755,E,0.08,358.43,311010,,*10
$GPGGA,040705.000,4332.0696,S,17235.0755,E,2,08,1.1,18.2,M,11.3,M,,0000*7E
$GPGSA,A,3,20,31,32,03,16,13,23,06,,,,,2.1,1.1,1.8*38
$GPGSV,3,1,11,16,70,077,48,23,68,228,41,20,37,322,36,13,35,231,44*71
$GPGSV,3,2,11,32,27,351,41,31,25,111,34,06,17,044,32,03,15,031,38*72
$GPGSV,3,3,11,07,07,277,,29,06,146,21,42,30,317,39*4C
$GPRMC,040705.000,A,4332.0696,S,17235.0755,E,0.08,8.18,311010,,*19
$GPGGA,040706.000,4332.0696,S,17235.0755,E,2,08,1.1,18.2,M,11.3,M,1.8,0000*5A
$GPGSA,A,3,20,31,32,03,16,13,23,06,,,,,2.1,1.1,1.8*38
$GPRMC,040706.000,A,4332.0696,S,17235.0755,E,0.09,1.09,311010,,*12
$GPGGA,040707.000,4332.0696,S,17235.0755,E,2,08,1.1,18.2,M,11.3,M,,0000*7C
$GPGSA,A,3,20,31,32,03,16,13,23,06,,,,,2.1,1.1,1.8*38
$GPRMC,040707.000,A,4332.0696,S,17235.0755,E,0.08,8.69,311010,,*1D
$GPGGA,040708.000,4332.0696,S,17235.0755,E,2,08,1.1,18.2,M,11.3,M,,0000*73
$GPGSA,A,3,20,31,32,03,16,13,23,06,,,,,2.1,1.1,1.8*38
$GPRMC,040708.000,A,4332.0696,S,17235.0755,E,0.08,8.27,311010,,*18
$GPGGA,040709.000,4332.0696,S,17235.0755,E,2,08,1.1,18.3,M,11.3,M,,0000*73
$GPGSA,A,3,20,31,32,03,16,13,23,06,,,,,2.1,1.1,1.8*38
$GPRMC,040709.000,A,4332.0696,S,17235.0755,E,0.15,348.81,311010,,*1E
$GPGGA,040710.000,4332.0696,S,17235.0755,E,2,08,1.1,18.3,M,11.3,M,1.8,0000*5C
$GPGSA,A,3,20,31,32,03,16,13,23,06,,,,,2.1,1.1,1.8*38
$GPGSV,3,1,11,16,70,077,47,23,68,228,41,20,37,322,36,13,35,231,44*7E
$GPGSV,3,2,11,32,27,351,40,31,25,111,34,06,17,044,32,03,15,031,38*73
$GPGSV,3,3,11,07,07,277,,29,06,146,21,42,30,317,39*4C
$GPRMC,040710.000,A,4332.0696,S,17235.0755,E,0.15,345.53,311010,,*14
$GPGGA,040711.000,4332.0696,S,17235.0755,E,2,08,1.1,18.2,M,11.3,M,,0000*7B
$GPGSA,A,3,20,31,32,03,16,13,23,06,,,,,2.1,1.1,1.8*38
$GPRMC,040711.000,A,4332.0696,S,17235.0755,E,0.14,358.68,311010,,*10
$GPGGA,040712.000,4332.0696,S,17235.0755,E,2,08,1.1,18.2,M,11.3,M,1.8,0000*5F
$GPGSA,A,3,20,31,32,03,16,13,23,06,,,,,2.1,1.1,1.8*38
$GPRMC,040712.000,A,4332.0696,S,17235.0755,E,0.11,2.06,311010,,*12
$GPGGA,040713.000,4332.0696,S,17235.0755,E,2,08,1.1,18.2,M,11.3,M,,0000*79
$GPGSA,A,3,20,31,32,03,16,13,23,06,,,,,2.1,1.1,1.8*38
$GPRMC,040713.000,A,4332.0696,S,17235.0755,E,0.11,2.94,311010,,*18
$GPGGA,040714.000,4332.0696,S,17235.0755,E,2,08,1.1,18.2,M,11.3,M,,0000*7E
$GPGSA,A,3,20,31,32,03,16,13,23,06,,,,,2.1,1.1,1.8*38
$GPRMC,040714.000,A,4332.0696,S,17235.0755,E,0.12,358.17,311010,,*1B
$GPGGA,040715.000,4332.0696,S,17235.0756,E,2,08,1.1,18.2,M,11.3,M,,0000*7C
$GPGSA,A,3,20,31,32,03,16,13,23,06,,,,,2.1,1.1,1.8*38
$GPGSV,3,1,11,16,70,077,47,23,68,228,40,20,37,322,36,13,35,231,44*7F
$GPGSV,3,2,11,32,27,351,40,31,25,111,34,06,17,044,32,03,15,031,38*73
$GPGSV,3,3,11,07,07,277,,29,06,146,22,42,30,317,39*4F
$GPRMC,040715.000,A,4332.0696,S,17235.0756,E,0.07,21.01,311010,,*27
$GPGGA,040716.000,4332.0696,S,17235.0756,E,2,08,1.1,18.2,M,11.3,M,1.8,0000*58
$GPGSA,A,3,20,31,32,03,16,13,23,06,,,,,2.1,1.1,1.8*38
$GPRMC,040716.000,A,4332.0696,S,17235.0756,E,0.07,24.26,311010,,*24
$GPGGA,040717.000,4332.0696,S,17235.0756,E,2,08,1.1,18.2,M,11.3,M,2.8,0000*5A
$GPGSA,A,3,20,31,32,03,16,13,23,06,,,,,2.1,1.1,1.8*38
$GPRMC,040717.000,A,4332.0696,S,17235.0756,E,0.07,25.73,311010,,*24
$GPGGA,040718.000,4332.0696,S,17235.0756,E,2,08,1.1,18.2,M,11.3,M,3.8,0000*54
$GPGSA,A,3,20,31,32,03,16,13,23,06,,,,,2.1,1.1,1.8*38
$GPRMC,040718.000,A,4332.0696,S,17235.0756,E,0.07,30.35,311010,,*2D
$GPGGA,040719.000,4332.0696,S,17235.0756,E,2,08,1.1,18.2,M,11.3,M,,0000*70
$GPGSA,A,3,20,31,32,03,16,13,23,06,,,,,2.1,1.1,1.8*38
$GPRMC,040719.000,A,4332.0696,S,17235.0756,E,0.13,24.30,311010,,*29
$GPGGA,040720.000,4332.0695,S,17235.0757,E,2,08,1.1,18.2,M,11.3,M,,0000*78
$GPGSA,A,3,20,31,32,03,16,13,23,06,,,,,2.1,1.1,1.8*38
$GPGSV,3,1,11,16,70,077,47,23,68,228,40,20,37,322,36,13,35,231,45*7E
$GPGSV,3,2,11,32,27,351,39,31,25,111,34,06,17,044,27,03,15,031,37*76
$GPGSV,3,3,11,07,07,277,,29,06,146,22,42,30,317,40*41
$GPRMC,040720.000,A,4332.0695,S,17235.0757,E,0.63,26.44,311010,,*27
$GPGGA,040721.000,4332.0693,S,17235.0758,E,2,08,1.1,18.2,M,11.3,M,,0000*70
$GPGSA,A,3,20,31,32,03,16,13,23,06,,,,,2.1,1.1,1.8*38
$GPRMC,040721.000,A,4332.0693,S,17235.0758,E,1.17,24.46,311010,,*2D
$GPGGA,040722.000,4332.0690,S,17235.0761,E,2,08,1.1,18.2,M,11.3,M,,0000*7A
$GPGSA,A,3,20,31,32,03,16,13,23,06,,,,,2.1,1.1,1.8*38
$GPRMC,040722.000,A,4332.0690,S,17235.0761,E,1.59,24.59,311010,,*23
$GPGGA,040723.000,4332.0686,S,17235.0764,E,2,08,1.1,18.2,M,11.3,M,1.8,0000*5E
$GPGSA,A,3,20,31,32,03,16,13,23,06,,,,,2.1,1.1,1.8*38
$GPRMC,040723.000,A,4332.0686,S,17235.0764,E,2.12,23.83,311010,,*2C
$GPGGA,040724.000,4332.0680,S,17235.0767,E,2,08,1.1,18.3,M,11.3,M,0.8,0000*5C
$GPGSA,A,3,20,31,32,03,16,13,23,06,,,,,2.1,1.1,1.8*38
$GPRMC,040724.000,A,4332.0680,S,17235.0767,E,2.26,21.38,311010,,*2B
$GPGGA,040725.000,4332.0675,S,17235.0770,E,2,08,1.1,18.3,M,11.3,M,0.8,0000*51
$GPGSA,A,3,20,31,32,03,16,13,23,06,,,,,2.1,1.1,1.8*38
$GPGSV,3,1,11,16,70,077,46,23,68,228,41,20,37,322,37,13,35,231,35*78
$GPGSV,3,2,11,32,27,351,40,31,25,111,33,06,17,044,39,03,15,031,37*70
$GPGSV,3,3,11,07,07,277,,29,06,146,20,42,30,317,41*42
$GPRMC,040725.000,A,4332.0675,S,17235.0770,E,2.15,21.68,311010,,*23
$GPGGA,040726.000,4332.0668,S,17235.0773,E,2,08,1.1,18.2,M,11.3,M,0.8,0000*5C
$GPGSA,A,3,20,31,32,03,16,13,23,06,,,,,2.1,1.1,1.8*38
$GPRMC,040726.000,A,4332.0668,S,17235.0773,E,2.90,21.18,311010,,*25
$GPGGA,040727.000,4332.0662,S,17235.0779,E,2,08,1.1,17.7,M,11.3,M,0.8,0000*57
$GPGSA,A,3,20,31,32,03,16,13,23,06,,,,,2.1,1.1,1.8*38
$GPRMC,040727.000,A,4332.0662,S,17235.0779,E,3.19,24.62,311010,,*2C
$GPGGA,040728.000,4332.0655,S,17235.0785,E,2,08,1.1,17.3,M,11.3,M,1.8,0000*5A
$GPGSA,A,3,20,31,32,03,16,13,23,06,,,,,2.1,1.1,1.8*38
$GPRMC,040728.000,A,4332.0655,S,17235.0785,E,3.10,25.60,311010,,*2E
$GPGGA,040729.000,4332.0648,S,17235.0790,E,2,08,1.1,16.8,M,11.3,M,2.8,0000*5A
$GPGSA,A,3,20,31,32,03,16,13,23,06,,,,,2.1,1.1,1.8*38
$GPRMC,040729.000,A,4332.0648,S,17235.0790,E,2.80,28.25,311010,,*23
$GPGGA,040730.000,4332.0643,S,17235.0795,E,2,08,1.1,16.5,M,11.3,M,0.8,0000*53
$GPGSA,A,3,20,31,32,03,16,13,23,06,,,,,2.1,1.1,1.8*38
$GPGSV,3,1,11,16,70,077,45,23,68,228,42,20,37,322,37,13,35,231,38*75
$GPGSV,3,2,11,32,27,351,42,31,25,111,43,06,17,044,39,03,15,031,35*77
$GPGSV,3,3,11,07,07,277,23,29,06,146,23,42,30,317,30*46
$GPRMC,040730.000,A,4332.0643,S,17235.0795,E,2.20,25.91,311010,,*2D
$GPGGA,040731.000,4332.0639,S,17235.0799,E,2,08,1.1,16.3,M,11.3,M,1.8,0000*54
$GPGSA,A,3,20,31,32,03,16,13,23,06,,,,,2.1,1.1,1.8*38
$GPRMC,040731.000,A,4332.0639,S,17235.0799,E,1.56,26.14,311010,,*21
$GPGGA,040732.000,4332.0636,S,17235.0802,E,2,08,1.1,16.1,M,11.3,M,2.8,0000*54
$GPGSA,A,3,20,31,32,03,16,13,23,06,,,,,2.1,1.1,1.8*38
$GPRMC,040732.000,A,4332.0636,S,17235.0802,E,1.35,25.18,311010,,*2A
$GPGGA,040733.000,4332.0633,S,17235.0804,E,2,08,1.1,15.9,M,11.3,M,3.8,0000*5C
$GPGSA,A,3,20,31,32,03,16,13,23,06,,,,,2.1,1.1,1.8*38
$GPRMC,040733.000,A,4332.0633,S,17235.0804,E,1.04,25.64,311010,,*21
$GPGGA,040734.000,4332.0631,S,17235.0806,E,2,08,1.1,15.8,M,11.3,M,4.8,0000*5D
$GPGSA,A,3,20,31,32,03,16,13,23,06,,,,,2.1,1.1,1.8*38
$GPRMC,040734.000,A,4332.0631,S,17235.0806,E,1.12,21.59,311010,,*2B
$GPGGA,040735.000,4332.0627,S,17235.0807,E,2,08,1.1,15.7,M,11.3,M,5.8,0000*54
$GPGSA,A,3,20,31,32,03,16,13,23,06,,,,,2.1,1.1,1.8*38
$GPGSV,3,1,11,16,70,077,44,23,68,228,41,20,37,322,43,13,35,231,39*75
$GPGSV,3,2,11,32,27,351,41,31,25,111,37,06,17,044,39,03,15,031,33*71
$GPGSV,3,3,11,07,07,277,28,29,06,146,26,42,30,317,35*4D
$GPRMC,040735.000,A,4332.0627,S,17235.0807,E,1.55,20.99,311010,,*22
$GPGGA,040736.000,4332.0623,S,17235.0809,E,2,08,1.1,15.7,M,11.3,M,0.8,0000*58
$GPGSA,A,3,20,31,32,03,16,13,23,06,,,,,2.1,1.1,1.8*38
$GPRMC,040736.000,A,4332.0623,S,17235.0809,E,1.88,13.35,311010,,*2D
$GPGGA,040737.000,4332.0617,S,17235.0810,E,2,08,1.1,15.6,M,11.3,M,1.8,0000*56
$GPGSA,A,3,20,31,32,03,16,13,23,06,,,,,2.1,1.1,1.8*38
$GPRMC,040737.000,A,4332.0617,S,17235.0810,E,2.13,13.97,311010,,*2A
$GPGGA,040738.000,4332.0612,S,17235.0812,E,2,08,1.1,15.6,M,11.3,M,0.8,0000*5F
$GPGSA,A,3,20,31,32,03,16,13,23,06,,,,,2.1,1.1,1.8*38
$GPRMC,040738.000,A,4332.0612,S,17235.0812,E,2.07,27.94,311010,,*23
$GPGGA,040739.000,4332.0609,S,17235.0816,E,2,08,1.1,15.5,M,11.3,M,0.8,0000*53
$GPGSA,A,3,20,31,32,03,16,13,23,06,,,,,2.1,1.1,1.8*38
$GPRMC,040739.000,A,4332.0609,S,17235.0816,E,1.59,38.27,311010,,*22
$GPGGA,040740.000,4332.0606,S,17235.0819,E,2,08,1.1,15.4,M,11.3,M,0.8,0000*5C
$GPGSA,A,3,20,31,32,03,16,13,23,06,,,,,2.1,1.1,1.8*38
$GPGSV,3,1,11,16,70,077,44,23,68,228,49,20,37,322,45,13,35,231,43*76
$GPGSV,3,2,11,32,27,351,42,31,25,111,42,06,17,044,38,03,15,031,37*75
$GPGSV,3,3,11,07,07,277,30,29,06,146,28,42,30,317,46*4E
$GPRMC,040740.000,A,4332.0606,S,17235.0819,E,1.20,44.69,311010,,*23
$GPGGA,040741.000,4332.0605,S,17235.0823,E,2,08,1.1,15.2,M,11.3,M,1.8,0000*50
$GPGSA,A,3,20,31,32,03,16,13,23,06,,,,,2.1,1.1,1.8*38
$GPRMC,040741.000,A,4332.0605,S,17235.0823,E,1.00,50.63,311010,,*25
$GPGGA,040742.000,4332.0605,S,17235.0824,E,2,08,1.1,15.0,M,11.3,M,2.8,0000*55
$GPGSA,A,3,20,31,32,03,16,13,23,06,,,,,2.1,1.1,1.8*38
$GPRMC,040742.000,A,4332.0605,S,17235.0824,E,0.12,43.24,311010,,*22
$GPGGA,040743.000,4332.0605,S,17235.0824,E,2,08,1.1,14.9,M,11.3,M,0.8,0000*5E
$GPGSA,A,3,20,31,32,03,16,13,23,06,,,,,2.1,1.1,1.8*38
$GPRMC,040743.000,A,4332.0605,S,17235.0824,E,0.06,24.54,311010,,*20
$GPGGA,040744.000,4332.0606,S,17235.0823,E,2,08,1.1,14.7,M,11.3,M,0.8,0000*53
$GPGSA,A,3,20,31,32,03,16,13,23,06,,,,,2.1,1.1,1.8*38
$GPRMC,040744.000,A,4332.0606,S,17235.0823,E,0.23,267.00,311010,,*10
$GPGGA,040745.000,4332.0607,S,17235.0820,E,2,08,1.1,14.5,M,11.3,M,0.8,0000*52
$GPGSA,A,3,20,31,32,03,16,13,23,06,,,,,2.1,1.1,1.8*38
$GPGSV,3,1,11,16,70,077,42,23,68,228,47,20,37,322,44,13,35,231,39*72
$GPGSV,3,2,11,32,27,351,47,31,25,111,40,06,17,044,38,03,15,031,34*71
$GPGSV,3,3,11,07,07,277,26,29,06,146,22,42,30,317,36*44
$GPRMC,040745.000,A,4332.0607,S,17235.0820,E,1.01,272.06,311010,,*10
$GPGGA,040746.000,4332.0606,S,17235.0813,E,2,08,1.1,14.3,M,11.3,M,1.8,0000*57
$GPGSA,A,3,20,31,32,03,16,13,23,06,,,,,2.1,1.1,1.8*38
$GPRMC,040746.000,A,4332.0606,S,17235.0813,E,2.83,287.34,311010,,*10
$GPGGA,040747.000,4332.0601,S,17235.0798,E,2,08,1.1,14.2,M,11.3,M,2.8,0000*5F
$GPGSA,A,3,20,31,32,03,16,13,23,06,,,,,2.1,1.1,1.8*38
$GPRMC,040747.000,A,4332.0601,S,17235.0798,E,5.34,302.66,311010,,*1A
$GPGGA,040748.000,4332.0592,S,17235.0780,E,2,08,1.1,14.1,M,11.3,M,3.8,0000*52
$GPGSA,A,3,20,31,32,03,16,13,23,06,,,,,2.1,1.1,1.8*38
$GPRMC,040748.000,A,4332.0592,S,17235.0780,E,6.08,307.32,311010,,*1D
$GPGGA,040749.000,4332.0582,S,17235.0759,E,2,08,1.1,14.0,M,11.3,M,0.8,0000*54
$GPGSA,A,3,20,31,32,03,16,13,23,06,,,,,2.1,1.1,1.8*38
$GPRMC,040749.000,A,4332.0582,S,17235.0759,E,7.19,303.79,311010,,*13
$GPGGA,040750.000,4332.0570,S,17235.0732,E,2,08,1.1,13.9,M,11.3,M,1.8,0000*53
$GPGSA,A,3,20,31,32,03,16,13,23,06,,,,,2.1,1.1,1.8*38
$GPGSV,3,1,11,16,70,078,42,23,69,228,48,20,37,322,42,13,35,231,40*7B
$GPGSV,3,2,11,32,27,351,39,31,24,110,40,06,17,044,40,03,16,031,40*77
$GPGSV,3,3,11,07,07,277,25,29,06,146,26,42,30,317,29*4D
$GPRMC,040750.000,A,4332.0570,S,17235.0732,E,8.97,300.84,311010,,*13
$GPGGA,040751.000,4332.0556,S,17235.0697,E,2,08,1.1,13.9,M,11.3,M,2.8,0000*5B
$GPGSA,A,3,20,31,32,03,16,13,23,06,,,,,2.1,1.1,1.8*38
$GPRMC,040751.000,A,4332.0556,S,17235.0697,E,11.40,298.56,311010,,*25
$GPGGA,040752.000,4332.0540,S,17235.0654,E,2,08,1.1,13.9,M,11.3,M,3.8,0000*51
$GPGSA,A,3,20,31,32,03,16,13,23,06,,,,,2.1,1.1,1.8*38
$GPRMC,040752.000,A,4332.0540,S,17235.0654,E,13.36,297.21,311010,,*22
$GPGGA,040753.000,4332.0523,S,17235.0606,E,2,08,1.1,13.9,M,11.3,M,4.8,0000*55
$GPGSA,A,3,20,31,32,03,16,13,23,06,,,,,2.1,1.1,1.8*38
$GPRMC,040753.000,A,4332.0523,S,17235.0606,E,14.42,296.61,311010,,*20
$GPGGA,040754.000,4332.0505,S,17235.0555,E,2,08,1.1,14.0,M,11.3,M,0.8,0000*59
$GPGSA,A,3,20,31,32,03,16,13,23,06,,,,,2.1,1.1,1.8*38
$GPRMC,040754.000,A,4332.0505,S,17235.0555,E,14.96,296.01,311010,,*29
$GPGGA,040755.000,4332.0486,S,17235.0503,E,2,08,1.1,14.1,M,11.3,M,0.8,0000*50
$GPGSA,A,3,20,31,32,03,16,13,23,06,,,,,2.1,1.1,1.8*38
$GPGSV,3,1,11,16,70,078,41,23,69,228,49,20,37,322,42,13,35,231,33*7D
$GPGSV,3,2,11,32,27,351,39,31,24,110,39,06,17,044,34,03,16,031,41*7B
$GPGSV,3,3,11,07,07,277,25,29,06,146,25,42,30,317,36*40
$GPRMC,040755.000,A,4332.0486,S,17235.0503,E,15.02,295.85,311010,,*22
$GPGGA,040756.000,4332.0467,S,17235.0449,E,2,08,1.1,14.2,M,11.3,M,0.8,0000*50
$GPGSA,A,3,20,31,32,03,16,13,23,06,,,,,2.1,1.1,1.8*38
$GPRMC,040756.000,A,4332.0467,S,17235.0449,E,15.69,296.21,311010,,*21
$GPGGA,040757.000,4332.0448,S,17235.0395,E,2,08,1.1,14.3,M,11.3,M,0.8,0000*5B
$GPGSA,A,3,20,31,32,03,16,13,23,06,,,,,2.1,1.1,1.8*38
$GPRMC,040757.000,A,4332.0448,S,17235.0395,E,15.87,296.43,311010,,*2F
$GPGGA,040758.000,4332.0428,S,17235.0340,E,2,08,1.1,14.3,M,11.3,M,1.8,0000*5B
$GPGSA,A,3,20,31,32,03,16,13,23,06,,,,,2.1,1.1,1.8*38
$GPRMC,040758.000,A,4332.0428,S,17235.0340,E,15.72,297.16,311010,,*25
$GPGGA,040759.000,4332.0408,S,17235.0287,E,2,08,1.1,14.3,M,11.3,M,2.8,0000*51
$GPGSA,A,3,20,31,32,03,16,13,23,06,,,,,2.1,1.1,1.8*38
$GPRMC,040759.000,A,4332.0408,S,17235.0287,E,15.15,297.55,311010,,*2A
$GPGGA,040800.000,4332.0389,S,17235.0237,E,2,08,1.1,14.3,M,11.3,M,3.8,0000*56
$GPGSA,A,3,20,31,32,03,16,13,23,06,,,,,2.1,1.1,1.8*38
$GPGSV,3,1,11,16,70,078,41,23,69,228,49,20,37,322,42,13,35,231,36*78
$GPGSV,3,2,11,32,27,351,39,31,24,110,39,06,17,044,36,03,16,031,42*7A
$GPGSV,3,3,11,07,07,277,24,29,06,146,24,42,30,317,34*42
$GPRMC,040800.000,A,4332.0389,S,17235.0237,E,14.37,296.19,311010,,*24
$GPGGA,040801.000,4332.0373,S,17235.0188,E,2,08,1.1,14.3,M,11.3,M,0.8,0000*56
$GPGSA,A,3,20,31,32,03,16,13,23,06,,,,,2.1,1.1,1.8*38
$GPRMC,040801.000,A,4332.0373,S,17235.0188,E,13.56,294.97,311010,,*23
$GPGGA,040802.000,4332.0357,S,17235.0142,E,2,08,1.1,14.3,M,11.3,M,0.8,0000*55
$GPGSA,A,3,20,31,32,03,16,13,23,06,,,,,2.1,1.1,1.8*38
$GPRMC,040802.000,A,4332.0357,S,17235.0142,E,13.08,295.35,311010,,*22
$GPGGA,040803.000,4332.0342,S,17235.0097,E,2,08,1.1,14.3,M,11.3,M,0.8,0000*59
$GPGSA,A,3,20,31,32,03,16,13,23,06,,,,,2.1,1.1,1.8*38
$GPRMC,040803.000,A,4332.0342,S,17235.0097,E,12.56,296.50,311010,,*24
$GPGGA,040804.000,4332.0326,S,17235.0054,E,2,08,1.1,14.3,M,11.3,M,1.8,0000*52
$GPGSA,A,3,20,31,32,03,16,13,23,06,,,,,2.1,1.1,1.8*38
$GPRMC,040804.000,A,4332.0326,S,17235.0054,E,12.54,297.65,311010,,*2B
$GPGGA,040805.000,4332.0309,S,17235.0009,E,2,08,1.1,14.3,M,11.3,M,2.8,0000*55
$GPGSA,A,3,20,31,32,03,16,13,23,06,,,,,2.1,1.1,1.8*38
$GPGSV,3,1,11,16,70,078,42,23,69,228,49,20,37,322,43,13,35,231,40*7B
$GPGSV,3,2,11,32,27,351,39,31,24,110,38,06,17,044,36,03,16,031,36*78
$GPGSV,3,3,11,07,07,277,39,29,06,146,24,42,30,317,35*4F
$GPRMC,040805.000,A,4332.0309,S,17235.0009,E,13.79,298.43,311010,,*2A
$GPGGA,040806.000,4332.0290,S,17234.9960,E,2,08,1.1,14.2,M,11.3,M,3.8,0000*59
$GPGSA,A,3,20,31,32,03,16,13,23,06,,,,,2.1,1.1,1.8*38
$GPRMC,040806.000,A,4332.0290,S,17234.9960,E,15.35,298.31,311010,,*2D
$GPGGA,040807.000,4332.0269,S,17234.9905,E,2,08,1.1,14.2,M,11.3,M,0.8,0000*5E
$GPGSA,A,3,20,31,32,03,16,13,23,06,,,,,2.1,1.1,1.8*38
$GPRMC,040807.000,A,4332.0269,S,17234.9905,E,16.60,298.13,311010,,*2A
$GPGGA,040808.000,4332.0247,S,17234.9847,E,2,08,1.1,14.1,M,11.3,M,1.8,0000*58
$GPGSA,A,3,20,31,32,03,16,13,23,06,,,,,2.1,1.1,1.8*38
$GPRMC,040808.000,A,4332.0247,S,17234.9847,E,17.13,297.62,311010,,*22
$GPGGA,040809.000,4332.0225,S,17234.9788,E,2,08,1.1,14.1,M,11.3,M,0.8,0000*50
$GPGSA,A,3,20,31,32,03,16,13,23,06,,,,,2.1,1.1,1.8*38
$GPRMC,040809.000,A,4332.0225,S,17234.9788,E,17.29,297.25,311010,,*21
$GPGGA,040810.000,4332.0204,S,17234.9729,E,2,08,1.1,14.1,M,11.3,M,0.8,0000*50
$GPGSA,A,3,20,31,32,03,16,13,23,06,,,,,2.1,1.1,1.8*38
$GPGSV,3,1,11,16,70,078,41,23,69,228,49,20,37,322,43,13,35,231,33*7C
$GPGSV,3,2,11,32,27,351,38,31,24,110,38,06,17,044,36,03,16,031,40*78
$GPGSV,3,3,11,07,07,277,28,29,06,146,30,42,30,317,34*4B
$GPRMC,040810.000,A,4332.0204,S,17234.9729,E,16.88,296.76,311010,,*2C
$GPGGA,040811.000,4332.0183,S,17234.9672,E,2,08,1.1,14.1,M,11.3,M,1.8,0000*53
$GPGSA,A,3,20,31,32,03,16,13,23,06,,,,,2.1,1.1,1.8*38
$GPRMC,040811.000,A,4332.0183,S,17234.9672,E,16.32,296.00,311010,,*2E
$GPGGA,040812.000,4332.0164,S,17234.9617,E,2,08,1.1,14.3,M,11.3,M,2.8,0000*5B
$GPGSA,A,3,20,31,32,03,16,13,23,06,,,,,2.1,1.1,1.8*38
$GPRMC,040812.000,A,4332.0164,S,17234.9617,E,15.79,295.77,311010,,*28
$GPGGA,040813.000,4332.0146,S,17234.9563,E,2,08,1.1,14.3,M,11.3,M,0.8,0000*58
$GPGSA,A,3,20,31,32,03,16,13,23,06,,,,,2.1,1.1,1.8*38
$GPRMC,040813.000,A,4332.0146,S,17234.9563,E,14.92,294.53,311010,,*2A
$GPGGA,040814.000,4332.0131,S,17234.9512,E,2,08,1.1,14.4,M,11.3,M,1.8,0000*5F
$GPGSA,A,3,20,31,32,03,16,13,23,06,,,,,2.1,1.1,1.8*38
$GPRMC,040814.000,A,4332.0131,S,17234.9512,E,14.06,291.06,311010,,*23
$GPGGA,040815.000,4332.0120,S,17234.9462,E,2,08,1.1,14.4,M,11.3,M,2.8,0000*5B
$GPGSA,A,3,20,31,32,03,16,13,23,06,,,,,2.1,1.1,1.8*38
$GPGSV,3,1,11,16,70,078,36,23,69,228,49,20,37,322,39,13,35,231,38*7A
$GPGSV,3,2,11,32,27,351,42,31,24,110,38,06,17,044,31,03,16,031,40*72
$GPGSV,3,3,11,07,07,277,35,29,06,146,27,42,30,317,33*46
$GPRMC,040815.000,A,4332.0120,S,17234.9462,E,13.41,284.03,311010,,*21
$GPGGA,040816.000,4332.0113,S,17234.9411,E,2,07,1.1,14.1,M,11.3,M,3.8,0000*57
$GPGSA,A,3,20,31,32,16,13,23,06,,,,,,2.2,1.1,1.9*39
$GPRMC,040816.000,A,4332.0113,S,17234.9411,E,13.35,278.64,311010,,*27
$GPGGA,040817.000,4332.0112,S,17234.9362,E,2,07,1.1,13.9,M,11.3,M,4.8,0000*5C
$GPGSA,A,3,20,31,32,16,13,23,06,,,,,,2.2,1.1,1.9*39
$GPRMC,040817.000,A,4332.0112,S,17234.9362,E,12.49,268.37,311010,,*29
$GPGGA,040818.000,4332.0116,S,17234.9314,E,2,08,1.1,13.7,M,11.3,M,5.8,0000*56
$GPGSA,A,3,20,31,32,03,16,13,23,06,,,,,2.1,1.1,1.8*38
$GPRMC,040818.000,A,4332.0116,S,17234.9314,E,12.36,261.46,311010,,*24
$GPGGA,040819.000,4332.0122,S,17234.9267,E,2,08,1.1,13.5,M,11.3,M,0.8,0000*52
$GPGSA,A,3,20,31,32,03,16,13,23,06,,,,,2.1,1.1,1.8*38
$GPRMC,040819.000,A,4332.0122,S,17234.9267,E,12.41,260.10,311010,,*25
$GPGGA,040820.000,4332.0129,S,17234.9221,E,2,08,1.1,13.3,M,11.3,M,0.8,0000*57
$GPGSA,A,3,20,31,32,03,16,13,23,06,,,,,2.1,1.1,1.8*38
$GPGSV,3,1,11,16,70,079,36,23,69,228,45,20,37,322,41,13,35,231,37*77
$GPGSV,3,2,11,32,26,351,48,31,24,110,38,06,18,044,33,03,16,031,34*77
$GPGSV,3,3,11,07,07,277,25,29,06,147,21,42,30,317,37*44
$GPRMC,040820.000,A,4332.0129,S,17234.9221,E,11.95,262.09,311010,,*26
$GPGGA,040821.000,4332.0133,S,17234.9176,E,2,08,1.1,13.2,M,11.3,M,0.8,0000*5D
$GPGSA,A,3,20,31,32,03,16,13,23,06,,,,,2.1,1.1,1.8*38
$GPRMC,040821.000,A,4332.0133,S,17234.9176,E,11.46,264.36,311010,,*29
$GPGGA,040822.000,4332.0137,S,17234.9132,E,2,08,1.1,13.2,M,11.3,M,1.8,0000*5B
$GPGSA,A,3,20,31,32,03,16,13,23,06,,,,,2.1,1.1,1.8*38
$GPRMC,040822.000,A,4332.0137,S,17234.9132,E,11.81,264.44,311010,,*20
$GPGGA,040823.000,4332.0140,S,17234.9085,E,2,08,1.1,13.3,M,11.3,M,2.8,0000*55
$GPGSA,A,3,20,31,32,03,16,13,23,06,,,,,2.1,1.1,1.8*38
$GPRMC,040823.000,A,4332.0140,S,17234.9085,E,13.28,264.57,311010,,*2F
$GPGGA,040824.000,4332.0145,S,17234.9032,E,2,08,1.1,13.6,M,11.3,M,0.8,0000*5C
$GPGSA,A,3,20,31,32,03,16,13,23,06,,,,,2.1,1.1,1.8*38
$GPRMC,040824.000,A,4332.0145,S,17234.9032,E,14.29,263.59,311010,,*2E
$GPGGA,040825.000,4332.0150,S,17234.8977,E,2,08,1.1,13.7,M,11.3,M,0.8,0000*51
$GPGSA,A,3,20,31,32,03,16,13,23,06,,,,,2.1,1.1,1.8*38
$GPGSV,3,1,11,16,70,079,36,23,69,228,44,20,37,322,40,13,35,231,39*79
$GPGSV,3,2,11,32,26,351,47,31,24,110,42,06,18,044,38,03,16,031,36*7C
$GPGSV,3,3,11,07,07,277,17,29,06,147,25,42,30,317,32*44
$GPRMC,040825.000,A,4332.0150,S,17234.8977,E,15.02,262.53,311010,,*21
$GPGGA,040826.000,4332.0156,S,17234.8920,E,2,08,1.1,14.0,M,11.3,M,1.8,0000*57
$GPGSA,A,3,20,31,32,03,16,13,23,06,,,,,2.1,1.1,1.9*39
$GPRMC,040826.000,A,4332.0156,S,17234.8920,E,15.28,263.64,311010,,*2B
$GPGGA,040827.000,4332.0161,S,17234.8862,E,2,08,1.1,14.2,M,11.3,M,0.8,0000*56
$GPGSA,A,3,20,31,32,03,16,13,23,06,,,,,2.1,1.1,1.9*39
$GPRMC,040827.000,A,4332.0161,S,17234.8862,E,15.43,263.84,311010,,*2A
$GPGGA,040828.000,4332.0165,S,17234.8804,E,2,08,1.1,14.5,M,11.3,M,0.8,0000*5A
$GPGSA,A,3,20,31,32,03,16,13,23,06,,,,,2.1,1.1,1.9*39
$GPRMC,040828.000,A,4332.0165,S,17234.8804,E,15.30,264.41,311010,,*2B
$GPGGA,040829.000,4332.0170,S,17234.8746,E,2,08,1.1,14.5,M,11.3,M,1.8,0000*57
$GPGSA,A,3,20,31,32,03,16,13,23,06,,,,,2.1,1.1,1.9*39
$GPRMC,040829.000,A,4332.0170,S,17234.8746,E,14.76,264.76,311010,,*20
$GPGGA,040830.000,4332.0174,S,17234.8691,E,2,08,1.1,14.7,M,11.3,M,2.8,0000*51
$GPGSA,A,3,20,31,32,03,16,13,23,06,,,,,2.1,1.1,1.9*39
$GPGSV,3,1,11,16,70,079,36,23,69,228,43,20,37,322,40,13,35,231,39*7E
$GPGSV,3,2,11,32,26,351,46,31,24,110,38,06,18,044,35,03,16,031,35*7E
$GPGSV,3,3,11,07,07,277,25,29,06,147,25,42,30,317,39*4E
$GPRMC,040830.000,A,4332.0174,S,17234.8691,E,14.41,264.48,311010,,*2E
$GPGGA,040831.000,4332.0178,S,17234.8637,E,2,08,1.1,14.9,M,11.3,M,0.8,0000*5C
$GPGSA,A,3,20,31,32,03,16,13,23,06,,,,,2.1,1.1,1.9*39
$GPRMC,040831.000,A,4332.0178,S,17234.8637,E,13.75,263.95,311010,,*28
$GPGGA,040832.000,4332.0182,S,17234.8586,E,2,08,1.1,15.2,M,11.3,M,0.8,0000*59
$GPGSA,A,3,20,31,32,03,16,13,23,06,,,,,2.1,1.1,1.9*39
$GPRMC,040832.000,A,4332.0182,S,17234.8586,E,13.23,263.80,311010,,*20
$GPGGA,040833.000,4332.0186,S,17234.8538,E,2,08,1.1,15.6,M,11.3,M,0.8,0000*5D
$GPGSA,A,3,20,31,32,03,16,13,23,06,,,,,2.1,1.1,1.9*39
$GPRMC,040833.000,A,4332.0186,S,17234.8538,E,12.32,264.35,311010,,*28
$GPGGA,040834.000,4332.0190,S,17234.8491,E,2,08,1.1,15.8,M,11.3,M,1.8,0000*50
$GPGSA,A,3,20,31,32,03,16,13,23,06,,,,,2.1,1.1,1.9*39
$GPRMC,040834.000,A,4332.0190,S,17234.8491,E,12.48,264.44,311010,,*21
$GPGGA,040835.000,4332.0194,S,17234.8443,E,2,08,1.1,16.0,M,11.3,M,2.8,0000*52
$GPGSA,A,3,20,31,32,03,16,13,23,06,,,,,2.1,1.1,1.9*39
$GPGSV,3,1,11,16,70,079,36,23,69,228,44,20,37,322,40,13,35,231,38*78
$GPGSV,3,2,11,32,26,351,43,31,24,110,38,06,18,044,29,03,16,031,30*73
$GPGSV,3,3,11,07,07,277,28,29,06,147,30,42,30,317,33*4D
$GPRMC,040835.000,A,4332.0194,S,17234.8443,E,12.95,264.02,311010,,*29
$GPGGA,040836.000,4332.0198,S,17234.8394,E,2,08,1.1,16.3,M,11.3,M,3.8,0000*52
$GPGSA,A,3,20,31,32,03,16,13,23,06,,,,,2.1,1.1,1.9*39
$GPRMC,040836.000,A,4332.0198,S,17234.8394,E,12.91,263.23,311010,,*2B
$GPGGA,040837.000,4332.0202,S,17234.8345,E,2,08,1.1,16.8,M,11.3,M,0.8,0000*57
$GPGSA,A,3,20,31,32,03,16,13,23,06,,,,,2.1,1.1,1.9*39
$GPRMC,040837.000,A,4332.0202,S,17234.8345,E,12.78,262.41,311010,,*24
$GPGGA,040838.000,4332.0207,S,17234.8299,E,2,08,1.1,17.1,M,11.3,M,0.8,0000*55
$GPGSA,A,3,20,31,32,03,16,13,23,06,,,,,2.1,1.1,1.9*39
$GPRMC,040838.000,A,4332.0207,S,17234.8299,E,11.67,262.86,311010,,*28
$GPGGA,040839.000,4332.0212,S,17234.8258,E,2,08,1.1,17.2,M,11.3,M,0.8,0000*5E
$GPGSA,A,3,20,31,32,03,16,13,23,06,,,,,2.1,1.1,1.9*39
$GPRMC,040839.000,A,4332.0212,S,17234.8258,E,10.32,260.68,311010,,*23
$GPGGA,040840.000,4332.0216,S,17234.8224,E,2,08,1.1,17.4,M,11.3,M,1.8,0000*58
$GPGSA,A,3,20,31,32,03,16,13,23,06,,,,,2.1,1.1,1.9*39
$GPGSV,3,1,11,16,70,079,36,23,69,228,44,20,37,322,41,13,35,231,39*78
$GPGSV,3,2,11,32,26,351,47,31,24,110,39,06,18,044,24,03,16,031,30*7B
$GPGSV,3,3,11,07,07,277,28,29,06,147,26,42,30,317,37*4E
$GPRMC,040840.000,A,4332.0216,S,17234.8224,E,7.82,263.27,311010,,*17
$GPGGA,040841.000,4332.0218,S,17234.8201,E,2,08,1.1,17.6,M,11.3,M,0.8,0000*53
$GPGSA,A,3,20,31,32,03,16,13,23,06,,,,,2.1,1.1,1.9*39
$GPRMC,040841.000,A,4332.0218,S,17234.8201,E,4.49,266.75,311010,,*19
$GPGGA,040842.000,4332.0219,S,17234.8188,E,2,08,1.1,17.8,M,11.3,M,0.8,0000*5D
$GPGSA,A,3,20,31,32,03,16,13,23,06,,,,,2.1,1.1,1.9*39
$GPRMC,040842.000,A,4332.0219,S,17234.8188,E,3.03,269.24,311010,,*1B
$GPGGA,040843.000,4332.0218,S,17234.8173,E,2,08,1.1,17.9,M,11.3,M,0.8,0000*58
$GPGSA,A,3,20,31,32,03,16,13,23,06,,,,,2.1,1.1,1.9*39
$GPRMC,040843.000,A,4332.0218,S,17234.8173,E,4.68,281.85,311010,,*18
$GPGGA,040844.000,4332.0211,S,17234.8153,E,2,08,1.1,18.2,M,11.3,M,0.8,0000*50
$GPGSA,A,3,20,31,32,03,16,13,23,06,,,,,2.1,1.1,1.9*39
$GPRMC,040844.000,A,4332.0211,S,17234.8153,E,7.02,301.11,311010,,*1F
$GPGGA,040845.000,4332.0196,S,17234.8133,E,2,08,1.1,18.2,M,11.3,M,0.8,0000*5B
$GPGSA,A,3,20,31,32,03,16,13,23,06,,,,,2.1,1.1,1.9*39
$GPGSV,3,1,11,16,70,079,45,23,69,228,47,20,37,322,41,13,35,231,43*72
$GPGSV,3,2,11,32,26,351,38,31,24,110,42,06,18,044,39,03,16,031,44*70
$GPGSV,3,3,11,07,07,277,32,29,06,147,27,42,30,317,36*45
$GPRMC,040845.000,A,4332.0196,S,17234.8133,E,8.77,325.79,311010,,*11
$GPGGA,040846.000,4332.0171,S,17234.8119,E,2,08,1.1,18.3,M,11.3,M,1.8,0000*59
$GPGSA,A,3,20,31,32,03,16,13,23,06,,,,,2.1,1.1,1.9*39
$GPRMC,040846.000,A,4332.0171,S,17234.8119,E,10.69,347.31,311010,,*2D
$GPGGA,040847.000,4332.0139,S,17234.8112,E,2,08,1.1,18.4,M,11.3,M,2.8,0000*5B
$GPGSA,A,3,20,31,32,03,16,13,23,06,,,,,2.1,1.1,1.9*39
$GPRMC,040847.000,A,4332.0139,S,17234.8112,E,12.54,352.80,311010,,*29
$GPGGA,040848.000,4332.0102,S,17234.8107,E,2,08,1.1,18.6,M,11.3,M,0.8,0000*58
$GPGSA,A,3,20,31,32,03,16,13,23,06,,,,,2.1,1.1,1.9*39
$GPRMC,040848.000,A,4332.0102,S,17234.8107,E,14.31,353.92,311010,,*2D
$GPGGA,040849.000,4332.0060,S,17234.8102,E,2,08,1.1,18.6,M,11.3,M,0.8,0000*59
$GPGSA,A,3,20,31,32,03,16,13,23,06,,,,,2.1,1.1,1.9*39
$GPRMC,040849.000,A,4332.0060,S,17234.8102,E,15.85,354.93,311010,,*24
$GPGGA,040850.000,4332.0014,S,17234.8096,E,2,08,1.1,18.6,M,11.3,M,1.8,0000*5F
$GPGSA,A,3,20,31,32,03,16,13,23,06,,,,,2.1,1.1,1.9*39
$GPGSV,3,1,11,16,70,080,37,23,69,228,48,20,37,322,41,13,36,231,41*7F
$GPGSV,3,2,11,32,26,351,32,31,24,110,41,06,18,044,33,03,16,031,36*76
$GPGSV,3,3,11,07,08,276,23,29,06,147,28,42,30,317,36*44
$GPRMC,040850.000,A,4332.0014,S,17234.8096,E,17.35,354.35,311010,,*26
$GPGGA,040851.000,4331.9964,S,17234.8089,E,2,08,1.1,18.7,M,11.3,M,0.8,0000*54
$GPGSA,A,3,20,31,32,03,16,13,23,06,,,,,2.1,1.1,1.9*39
$GPRMC,040851.000,A,4331.9964,S,17234.8089,E,18.61,353.39,311010,,*28
$GPGGA,040852.000,4331.9911,S,17234.8080,E,2,08,1.1,18.4,M,11.3,M,1.8,0000*5E
$GPGSA,A,3,20,31,32,03,16,13,23,06,,,,,2.1,1.1,1.9*39
$GPRMC,040852.000,A,4331.9911,S,17234.8080,E,20.10,352.80,311010,,*2E
$GPGGA,040853.000,4331.9852,S,17234.8070,E,2,08,1.1,18.3,M,11.3,M,2.8,0000*52
$GPGSA,A,3,20,31,32,03,16,13,23,06,,,,,2.1,1.1,1.9*39
$GPRMC,040853.000,A,4331.9852,S,17234.8070,E,22.16,353.30,311010,,*28
$GPGGA,040854.000,4331.9789,S,17234.8060,E,2,08,1.1,18.1,M,11.3,M,3.8,0000*5E
$GPGSA,A,3,20,31,32,03,16,13,23,06,,,,,2.1,1.1,1.9*39
$GPRMC,040854.000,A,4331.9789,S,17234.8060,E,23.58,353.11,311010,,*2F
$GPGGA,040855.000,4331.9721,S,17234.8049,E,2,08,1.1,17.9,M,11.3,M,0.8,0000*52
$GPGSA,A,3,20,31,32,03,16,13,23,06,,,,,2.1,1.1,1.9*39
$GPGSV,3,1,11,16,70,080,36,23,69,228,49,20,37,322,41,13,36,231,43*7D
$GPGSV,3,2,11,32,26,351,33,31,24,110,41,06,18,044,33,03,16,031,36*77
$GPGSV,3,3,11,07,08,276,27,29,06,147,24,42,30,317,35*4F
$GPRMC,040855.000,A,4331.9721,S,17234.8049,E,24.80,353.00,311010,,*25
$GPGGA,040856.000,4331.9651,S,17234.8038,E,2,08,1.1,17.8,M,11.3,M,0.8,0000*50
$GPGSA,A,3,20,31,32,03,16,13,23,06,,,,,2.1,1.1,1.9*39
$GPRMC,040856.000,A,4331.9651,S,17234.8038,E,25.61,352.92,311010,,*22
$GPGGA,040857.000,4331.9580,S,17234.8026,E,2,08,1.1,17.8,M,11.3,M,0.8,0000*51
$GPGSA,A,3,20,31,32,03,16,13,23,06,,,,,2.1,1.1,1.9*39
$GPRMC,040857.000,A,4331.9580,S,17234.8026,E,25.81,353.15,311010,,*23
$GPGGA,040858.000,4331.9507,S,17234.8015,E,2,07,1.1,17.8,M,11.3,M,0.8,0000*5E
$GPGSA,A,3,20,31,32,03,16,13,23,,,,,,2.2,1.1,1.9*3C
$GPRMC,040858.000,A,4331.9507,S,17234.8015,E,26.43,353.53,311010,,*2C
$GPGGA,040859.000,4331.9432,S,17234.8003,E,2,07,1.1,17.8,M,11.3,M,1.8,0000*5E
$GPGSA,A,3,20,31,32,03,16,13,23,,,,,,2.2,1.1,1.9*3C
$GPRMC,040859.000,A,4331.9432,S,17234.8003,E,27.54,353.50,311010,,*29
$GPGGA,040900.000,4331.9355,S,17234.7991,E,2,08,1.1,17.8,M,11.3,M,0.8,0000*56
$GPGSA,A,3,20,31,32,03,16,13,23,06,,,,,2.1,1.1,1.9*39
$GPGSV,3,1,11,16,70,080,36,23,69,228,49,20,37,322,41,13,36,231,43*7D
$GPGSV,3,2,11,32,26,351,31,31,24,110,40,06,18,044,30,03,16,031,36*77
$GPGSV,3,3,11,07,08,276,31,29,06,147,28,42,30,317,34*45
$GPRMC,040900.000,A,4331.9355,S,17234.7991,E,28.45,353.19,311010,,*2D
$GPGGA,040901.000,4331.9275,S,17234.7978,E,2,08,1.1,17.9,M,11.3,M,0.8,0000*52
$GPGSA,A,3,20,31,32,03,16,13,23,06,,,,,2.1,1.1,1.9*39
$GPRMC,040901.000,A,4331.9275,S,17234.7978,E,28.74,352.84,311010,,*2F
$GPGGA,040902.000,4331.9197,S,17234.7965,E,2,08,1.1,18.1,M,11.3,M,0.8,0000*55
$GPGSA,A,3,20,31,32,03,16,13,23,06,,,,,2.2,1.1,1.9*3A
$GPRMC,040902.000,A,4331.9197,S,17234.7965,E,28.13,352.55,311010,,*22
$GPGGA,040903.000,4331.9120,S,17234.7951,E,2,07,1.1,18.2,M,11.3,M,0.8,0000*53
$GPGSA,A,3,20,31,32,03,16,13,23,,,,,,2.2,1.1,1.9*3C
$GPRMC,040903.000,A,4331.9120,S,17234.7951,E,27.30,352.78,311010,,*29
$GPGGA,040904.000,4331.9047,S,17234.7939,E,2,07,1.1,18.2,M,11.3,M,1.8,0000*5B
$GPGSA,A,3,20,31,32,03,16,13,23,,,,,,2.2,1.1,1.9*3C
$GPRMC,040904.000,A,4331.9047,S,17234.7939,E,25.44,352.88,311010,,*2E
$GPGGA,040905.000,4331.8982,S,17234.7927,E,2,08,1.1,18.2,M,11.3,M,2.8,0000*58
$GPGSA,A,3,20,31,32,03,16,13,23,06,,,,,2.2,1.1,1.9*3A
$GPGSV,3,1,11,16,70,080,36,23,69,228,49,20,37,322,41,13,36,231,38*71
$GPGSV,3,2,11,32,26,351,32,31,24,110,39,06,18,044,27,03,16,031,33*79
$GPGSV,3,3,11,07,08,276,21,29,06,147,28,42,30,317,31*41
$GPRMC,040905.000,A,4331.8982,S,17234.7927,E,22.50,353.43,311010,,*25
$GPGGA,040906.000,4331.8926,S,17234.7918,E,2,08,1.1,18.2,M,11.3,M,3.8,0000*58
$GPGSA,A,3,20,31,32,03,16,13,23,06,,,,,2.2,1.1,1.9*3A
$GPRMC,040906.000,A,4331.8926,S,17234.7918,E,18.23,352.34,311010,,*28
$GPGGA,040907.000,4331.8884,S,17234.7911,E,2,08,1.1,18.3,M,11.3,M,0.8,0000*5B
$GPGSA,A,3,20,31,32,03,16,13,23,06,,,,,2.2,1.1,1.9*3A
$GPRMC,040907.000,A,4331.8884,S,17234.7911,E,13.06,350.75,311010,,*22
$GPGGA,040908.000,4331.8855,S,17234.7902,E,2,08,1.1,18.4,M,11.3,M,0.8,0000*5D
$GPGSA,A,3,20,31,32,03,16,13,23,06,,,,,2.2,1.1,1.9*3A
$GPRMC,040908.000,A,4331.8855,S,17234.7902,E,9.07,341.04,311010,,*1F
$GPGGA,040909.000,4331.8838,S,17234.7893,E,2,08,1.1,18.5,M,11.3,M,0.8,0000*5F
$GPGSA,A,3,20,31,32,03,16,13,23,06,,,,,2.2,1.1,1.9*3A
$GPRMC,040909.000,A,4331.8838,S,17234.7893,E,5.04,330.16,311010,,*16
$GPGGA,040910.000,4331.8829,S,17234.7884,E,2,08,1.1,18.6,M,11.3,M,1.8,0000*53
$GPGSA,A,3,20,31,32,03,16,13,23,06,,,,,2.2,1.1,1.9*3A
$GPGSV,3,1,11,16,70,080,43,23,69,228,49,20,37,322,41,13,36,231,44*78
$GPGSV,3,2,11,32,26,351,33,31,24,110,40,06,18,044,38,03,16,031,38*73
$GPGSV,3,3,11,07,08,276,38,29,06,147,21,42,30,317,38*49
$GPRMC,040910.000,A,4331.8829,S,17234.7884,E,3.39,320.46,311010,,*14
$GPGGA,040911.000,4331.8821,S,17234.7871,E,2,08,1.1,18.8,M,11.3,M,2.8,0000*5D
$GPGSA,A,3,20,31,32,03,16,13,23,06,,,,,2.2,1.1,1.9*3A
$GPRMC,040911.000,A,4331.8821,S,17234.7871,E,5.69,304.48,311010,,*1C
$GPGGA,040912.000,4331.8814,S,17234.7845,E,2,07,1.1,18.8,M,11.3,M,3.8,0000*51
$GPGSA,A,3,20,31,32,16,13,23,06,,,,,,2.2,1.1,1.9*39
$GPRMC,040912.000,A,4331.8814,S,17234.7845,E,9.40,285.01,311010,,*1C
$GPGGA,040913.000,4331.8811,S,17234.7804,E,2,08,1.1,18.9,M,11.3,M,4.8,0000*59
$GPGSA,A,3,20,31,32,03,16,13,23,06,,,,,2.2,1.1,1.9*3A
$GPRMC,040913.000,A,4331.8811,S,17234.7804,E,12.32,271.15,311010,,*2C
$GPGGA,040914.000,4331.8813,S,17234.7751,E,2,08,1.1,19.0,M,11.3,M,0.8,0000*5F
$GPGSA,A,3,20,31,32,03,16,13,23,06,,,,,2.2,1.1,1.9*3A
$GPRMC,040914.000,A,4331.8813,S,17234.7751,E,15.00,267.52,311010,,*24
$GPGGA,040915.000,4331.8816,S,17234.7689,E,2,08,1.1,19.1,M,11.3,M,0.8,0000*5E
$GPGSA,A,3,20,31,32,03,16,13,23,06,,,,,2.2,1.1,1.9*3A
$GPGSV,3,1,11,16,70,080,38,23,69,228,47,20,37,322,41,13,36,231,43*7D
$GPGSV,3,2,11,32,26,351,43,31,24,110,40,06,18,044,32,03,16,031,36*70
$GPGSV,3,3,11,07,08,276,26,29,06,147,28,42,30,317,38*4F
$GPRMC,040915.000,A,4331.8816,S,17234.7689,E,17.30,266.20,311010,,*21
$GPGGA,040916.000,4331.8820,S,17234.7619,E,2,08,1.1,19.2,M,11.3,M,0.8,0000*52
$GPGSA,A,3,20,31,32,03,16,13,23,06,,,,,2.2,1.1,1.9*3A
$GPRMC,040916.000,A,4331.8820,S,17234.7619,E,19.01,265.82,311010,,*29
$GPGGA,040917.000,4331.8825,S,17234.7542,E,2,08,1.1,19.3,M,11.3,M,1.8,0000*5B
$GPGSA,A,3,20,31,32,03,16,13,23,06,,,,,2.2,1.1,1.9*3A
$GPRMC,040917.000,A,4331.8825,S,17234.7542,E,20.59,265.45,311010,,*2C
$GPGGA,040918.000,4331.8830,S,17234.7460,E,2,08,1.1,19.4,M,11.3,M,2.8,0000*55
$GPGSA,A,3,20,31,32,03,16,13,23,06,,,,,2.2,1.1,1.9*3A
$GPRMC,040918.000,A,4331.8830,S,17234.7460,E,22.03,265.32,311010,,*2B
$GPGGA,040919.000,4331.8836,S,17234.7373,E,2,08,1.1,19.5,M,11.3,M,0.8,0000*54
$GPGSA,A,3,20,31,32,03,16,13,23,06,,,,,2.2,1.1,1.9*3A
$GPRMC,040919.000,A,4331.8836,S,17234.7373,E,23.11,265.32,311010,,*2B
$GPGGA,040920.000,4331.8842,S,17234.7283,E,2,08,1.1,19.6,M,11.3,M,1.8,0000*51
$GPGSA,A,3,20,31,32,03,16,13,23,06,,,,,2.2,1.1,1.9*3A
$GPGSV,3,1,11,16,70,081,37,23,69,228,46,20,36,323,41,13,36,231,43*72
$GPGSV,3,2,11,32,26,351,45,31,24,110,41,06,18,044,35,03,16,031,37*71
$GPGSV,3,3,11,07,08,276,27,29,06,147,23,42,30,317,37*4A
$GPRMC,040920.000,A,4331.8842,S,17234.7283,E,23.80,265.03,311010,,*26
$GPGGA,040921.000,4331.8849,S,17234.7190,E,2,08,1.1,19.7,M,11.3,M,2.8,0000*58
$GPGSA,A,3,20,31,32,03,16,13,23,06,,,,,2.2,1.1,1.9*3A
$GPRMC,040921.000,A,4331.8849,S,17234.7190,E,24.31,264.72,311010,,*27
$GPGGA,040922.000,4331.8856,S,17234.7096,E,2,08,1.1,19.8,M,11.3,M,3.8,0000*5C
$GPGSA,A,3,20,31,32,03,16,13,23,06,,,,,2.2,1.1,1.9*3A
$GPRMC,040922.000,A,4331.8856,S,17234.7096,E,24.77,264.54,311010,,*2B
$GPGGA,040923.000,4331.8863,S,17234.7000,E,2,08,1.1,19.9,M,11.3,M,4.8,0000*52
$GPGSA,A,3,20,31,32,03,16,13,23,06,,,,,2.2,1.1,1.9*3A
$GPRMC,040923.000,A,4331.8863,S,17234.7000,E,25.11,264.40,311010,,*27
$GPGGA,040924.000,4331.8870,S,17234.6903,E,2,08,1.1,20.0,M,11.3,M,5.8,0000*5E
$GPGSA,A,3,20,31,32,03,16,13,23,06,,,,,2.2,1.1,1.9*3A
$GPRMC,040924.000,A,4331.8870,S,17234.6903,E,25.42,264.20,311010,,*29
$GPGGA,040925.000,4331.8878,S,17234.6805,E,2,08,1.1,20.1,M,11.3,M,0.8,0000*54
$GPGSA,A,3,20,31,32,03,16,13,23,06,,,,,2.2,1.1,1.9*3A
$GPGSV,3,1,11,16,70,081,37,23,69,228,46,20,36,323,41,13,36,231,42*73
$GPGSV,3,2,11,32,26,351,46,31,24,110,42,06,18,044,36,03,16,031,37*72
$GPGSV,3,3,11,07,08,276,34,29,06,147,27,42,30,317,38*43
$GPRMC,040925.000,A,4331.8878,S,17234.6805,E,25.75,264.07,311010,,*26
$GPGGA,040926.000,4331.8886,S,17234.6706,E,2,08,1.1,20.2,M,11.3,M,0.8,0000*59
$GPGSA,A,3,20,31,32,03,16,13,23,06,,,,,2.2,1.1,1.9*3A
$GPRMC,040926.000,A,4331.8886,S,17234.6706,E,26.02,263.89,311010,,*2A
$GPGGA,040927.000,4331.8895,S,17234.6606,E,2,08,1.1,20.3,M,11.3,M,0.8,0000*5A
$GPGSA,A,3,20,31,32,03,16,13,23,06,,,,,2.2,1.1,1.9*3A
$GPRMC,040927.000,A,4331.8895,S,17234.6606,E,26.10,263.48,311010,,*26
$GPGGA,040928.000,4331.8904,S,17234.6506,E,2,08,1.1,20.4,M,11.3,M,1.8,0000*59
$GPGSA,A,3,20,31,32,03,16,13,23,06,,,,,2.2,1.1,1.9*3A
$GPRMC,040928.000,A,4331.8904,S,17234.6506,E,25.98,263.10,311010,,*2D
$GPGGA,040929.000,4331.8913,S,17234.6407,E,2,08,1.1,20.5,M,11.3,M,0.8,0000*5E
$GPGSA,A,3,20,31,32,03,16,13,23,06,,,,,2.2,1.1,1.9*3A
$GPRMC,040929.000,A,4331.8913,S,17234.6407,E,25.91,263.07,311010,,*25
$GPGGA,040930.000,4331.8922,S,17234.6308,E,2,08,1.1,20.6,M,11.3,M,0.8,0000*5F
$GPGSA,A,3,20,31,32,03,16,13,23,06,,,,,2.2,1.1,1.9*3A
$GPGSV,3,1,11,16,70,081,38,23,69,228,46,20,36,323,42,13,36,231,42*7F
$GPGSV,3,2,11,32,26,351,47,31,24,110,42,06,18,044,36,03,16,031,31*75
$GPGSV,3,3,11,07,08,276,34,29,06,147,37,42,30,317,37*4D
$GPRMC,040930.000,A,4331.8922,S,17234.6308,E,25.84,263.45,311010,,*25
$GPGGA,040931.000,4331.8930,S,17234.6209,E,2,08,1.1,20.7,M,11.3,M,0.8,0000*5C
$GPGSA,A,3,20,31,32,03,16,13,23,06,,,,,2.2,1.1,1.9*3A
$GPRMC,040931.000,A,4331.8930,S,17234.6209,E,26.08,263.70,311010,,*26
$GPGGA,040932.000,4331.8939,S,17234.6109,E,2,08,1.1,20.9,M,11.3,M,0.8,0000*5B
$GPGSA,A,3,20,31,32,03,16,13,23,06,,,,,2.2,1.1,1.9*3A
$GPRMC,040932.000,A,4331.8939,S,17234.6109,E,26.33,263.67,311010,,*21
$GPGGA,040933.000,4331.8947,S,17234.6009,E,2,08,1.1,21.0,M,11.3,M,0.8,0000*5A
$GPGSA,A,3,20,31,32,03,16,13,23,06,,,,,2.2,1.1,1.9*3A
$GPRMC,040933.000,A,4331.8947,S,17234.6009,E,26.15,263.53,311010,,*2B
$GPGGA,040934.000,4331.8956,S,17234.5909,E,2,08,1.1,21.0,M,11.3,M,1.8,0000*56
$GPGSA,A,3,20,31,32,03,16,13,23,06,,,,,2.2,1.1,1.9*3A
$GPRMC,040934.000,A,4331.8956,S,17234.5909,E,25.83,263.58,311010,,*21
$GPGGA,040935.000,4331.8964,S,17234.5812,E,2,08,1.1,21.1,M,11.3,M,0.8,0000*5D
$GPGSA,A,3,20,31,32,03,16,13,23,06,,,,,2.2,1.1,1.9*3A
$GPGSV,3,1,11,16,70,081,37,23,69,228,46,20,36,323,42,13,36,231,42*70
$GPGSV,3,2,11,32,26,351,47,31,24,110,42,06,18,044,37,03,16,031,36*73
$GPGSV,3,3,11,07,08,276,33,29,06,147,23,42,30,317,37*4F
$GPRMC,040935.000,A,4331.8964,S,17234.5812,E,25.30,263.32,311010,,*2E
$GPGGA,040936.000,4331.8973,S,17234.5716,E,2,08,1.1,21.2,M,11.3,M,1.8,0000*51
$GPGSA,A,3,20,31,32,03,16,13,23,06,,,,,2.2,1.1,1.9*3A
$GPRMC,040936.000,A,4331.8973,S,17234.5716,E,24.85,262.87,311010,,*20
$GPGGA,040937.000,4331.8982,S,17234.5621,E,2,08,1.1,21.3,M,11.3,M,0.8,0000*5B
$GPGSA,A,3,20,31,32,03,16,13,23,06,,,,,2.2,1.1,1.9*3A
$GPRMC,040937.000,A,4331.8982,S,17234.5621,E,24.99,262.74,311010,,*2B
$GPGGA,040938.000,4331.8991,S,17234.5526,E,2,08,1.1,21.4,M,11.3,M,0.8,0000*55
$GPGSA,A,3,20,31,32,03,16,13,23,06,,,,,2.2,1.1,1.9*3A
$GPRMC,040938.000,A,4331.8991,S,17234.5526,E,25.17,263.07,311010,,*20
$GPGGA,040939.000,4331.9000,S,17234.5430,E,2,08,1.1,21.5,M,11.3,M,0.8,0000*53
$GPGSA,A,3,20,31,32,03,16,13,23,06,,,,,2.2,1.1,1.9*3A
$GPRMC,040939.000,A,4331.9000,S,17234.5430,E,25.00,263.68,311010,,*28
$GPGGA,040940.000,4331.9007,S,17234.5335,E,2,08,1.1,21.6,M,11.3,M,1.8,0000*5A
$GPGSA,A,3,20,31,32,03,16,13,23,06,,,,,2.2,1.1,1.9*3A
$GPGSV,3,1,11,16,70,081,37,23,69,228,45,20,36,323,43,13,36,231,39*7E
$GPGSV,3,2,11,32,26,351,47,31,24,110,41,06,18,044,37,03,16,031,37*71
$GPGSV,3,3,11,07,08,276,34,29,06,147,23,42,30,317,37*48
$GPRMC,040940.000,A,4331.9007,S,17234.5335,E,24.49,264.16,311010,,*21
$GPGGA,040941.000,4331.9015,S,17234.5243,E,2,08,1.1,21.6,M,11.3,M,2.8,0000*5B
$GPGSA,A,3,20,31,32,03,16,13,23,06,,,,,2.2,1.1,1.9*3A
$GPRMC,040941.000,A,4331.9015,S,17234.5243,E,24.08,263.56,311010,,*25
$GPGGA,040942.000,4331.9023,S,17234.5152,E,2,08,1.1,21.7,M,11.3,M,3.8,0000*5E
$GPGSA,A,3,20,31,32,03,16,13,23,06,,,,,2.2,1.1,1.9*3A
$GPRMC,040942.000,A,4331.9023,S,17234.5152,E,23.77,262.99,311010,,*2D
$GPGGA,040943.000,4331.9029,S,17234.5062,E,2,08,1.1,21.8,M,11.3,M,0.8,0000*5B
$GPGSA,A,3,20,31,32,03,16,13,23,06,,,,,2.2,1.1,1.9*3A
$GPRMC,040943.000,A,4331.9029,S,17234.5062,E,23.47,266.85,311010,,*2E
$GPGGA,040944.000,4331.9031,S,17234.4975,E,2,08,1.1,22.0,M,11.3,M,0.8,0000*50
$GPGSA,A,3,20,31,32,03,16,13,23,06,,,,,2.2,1.1,1.9*3A
$GPRMC,040944.000,A,4331.9031,S,17234.4975,E,21.77,269.63,311010,,*28
$GPGGA,040945.000,4331.9032,S,17234.4898,E,2,08,1.1,22.1,M,11.3,M,0.8,0000*51
$GPGSA,A,3,20,31,32,03,16,13,23,06,,,,,2.2,1.1,1.9*3A
$GPGSV,3,1,11,16,70,081,37,23,69,228,45,20,36,323,43,13,36,231,40*70
$GPGSV,3,2,11,32,26,351,46,31,24,110,40,06,18,044,37,03,16,031,37*71
$GPGSV,3,3,11,07,08,276,25,29,06,147,24,42,30,317,35*4D
$GPRMC,040945.000,A,4331.9032,S,17234.4898,E,18.36,269.51,311010,,*26
$GPGGA,040946.000,4331.9033,S,17234.4836,E,2,08,1.1,22.3,M,11.3,M,0.8,0000*55
$GPGSA,A,3,20,31,32,03,16,13,23,06,,,,,2.2,1.1,1.9*3A
$GPRMC,040946.000,A,4331.9033,S,17234.4836,E,14.55,267.44,311010,,*23
$GPGGA,040947.000,4331.9035,S,17234.4789,E,2,08,1.1,22.4,M,11.3,M,1.8,0000*5F
$GPGSA,A,3,20,31,32,03,16,13,23,06,,,,,2.2,1.1,1.9*3A
$GPRMC,040947.000,A,4331.9035,S,17234.4789,E,10.34,265.92,311010,,*25
$GPGGA,040948.000,4331.9037,S,17234.4760,E,2,08,1.1,22.5,M,11.3,M,2.8,0000*57
$GPGSA,A,3,20,31,32,03,16,13,23,06,,,,,2.2,1.1,1.9*3A
$GPRMC,040948.000,A,4331.9037,S,17234.4760,E,5.62,265.22,311010,,*13
$GPGGA,040949.000,4331.9038,S,17234.4747,E,2,08,1.1,22.6,M,11.3,M,0.8,0000*5D
$GPGSA,A,3,20,31,32,03,16,13,23,06,,,,,2.2,1.1,1.9*3A
$GPRMC,040949.000,A,4331.9038,S,17234.4747,E,2.05,268.64,311010,,*11
$GPGGA,040950.000,4331.9039,S,17234.4744,E,2,08,1.1,22.7,M,11.3,M,0.8,0000*56
$GPGSA,A,3,20,31,32,03,16,13,23,06,,,,,2.2,1.1,1.9*3A
$GPGSV,3,1,11,16,70,081,38,23,69,228,46,20,36,323,42,13,36,231,41*7C
$GPGSV,3,2,11,32,26,351,39,31,24,110,41,06,18,044,36,03,16,031,29*76
$GPGSV,3,3,11,07,08,276,31,29,06,147,31,42,30,317,39*40
$GPRMC,040950.000,A,4331.9039,S,17234.4744,E,0.33,279.64,311010,,*1C
$GPGGA,040951.000,4331.9039,S,17234.4744,E,2,08,1.1,22.7,M,11.3,M,0.8,0000*57
$GPGSA,A,3,20,31,32,03,16,13,23,06,,,,,2.2,1.1,1.9*3A
$GPRMC,040951.000,A,4331.9039,S,17234.4744,E,0.20,294.73,311010,,*1A
$GPGGA,040952.000,4331.9039,S,17234.4744,E,2,08,1.1,22.7,M,11.3,M,1.8,0000*55
$GPGSA,A,3,20,31,32,03,16,13,23,06,,,,,2.2,1.1,1.9*3A
$GPRMC,040952.000,A,4331.9039,S,17234.4744,E,0.13,310.70,311010,,*17
$GPGGA,040953.000,4331.9039,S,17234.4745,E,2,08,1.1,22.8,M,11.3,M,2.8,0000*59
$GPGSA,A,3,20,31,32,03,16,13,23,06,,,,,2.2,1.1,1.9*3A
$GPRMC,040953.000,A,4331.9039,S,17234.4745,E,0.11,15.04,311010,,*20
$GPGGA,040954.000,4331.9039,S,17234.4746,E,2,08,1.1,22.8,M,11.3,M,0.8,0000*5F
$GPGSA,A,3,20,31,32,03,16,13,23,06,,,,,2.2,1.1,1.9*3A
$GPRMC,040954.000,A,4331.9039,S,17234.4746,E,0.11,27.29,311010,,*2A
$GPGGA,040955.000,4331.9039,S,17234.4747,E,2,08,1.1,22.9,M,11.3,M,0.8,0000*5E
$GPGSA,A,3,20,31,32,03,16,13,23,06,,,,,2.2,1.1,1.9*3A
$GPGSV,3,1,11,16,70,081,37,23,69,228,46,20,36,323,42,13,36,231,41*73
$GPGSV,3,2,11,32,26,351,40,31,24,110,41,06,18,044,36,03,16,031,30*70
$GPGSV,3,3,11,07,08,276,33,29,06,147,22,42,30,317,39*40
$GPRMC,040955.000,A,4331.9039,S,17234.4747,E,0.10,37.46,311010,,*23
$GPGGA,040956.000,4331.9039,S,17234.4748,E,2,08,1.1,22.9,M,11.3,M,0.8,0000*52
$GPGSA,A,3,20,31,32,03,16,13,23,06,,,,,2.2,1.1,1.9*3A
$GPRMC,040956.000,A,4331.9039,S,17234.4748,E,0.08,32.79,311010,,*2F
$GPGGA,040957.000,4331.9039,S,17234.4749,E,2,08,1.1,23.0,M,11.3,M,0.8,0000*5A
$GPGSA,A,3,20,31,32,03,16,13,23,06,,,,,2.2,1.1,1.9*3A
$GPRMC,040957.000,A,4331.9039,S,17234.4749,E,0.12,29.56,311010,,*23
$GPGGA,040958.000,4331.9039,S,17234.4750,E,2,08,1.1,23.0,M,11.3,M,1.8,0000*5C
$GPGSA,A,3,20,31,32,03,16,13,23,06,,,,,2.2,1.1,1.9*3A
$GPRMC,040958.000,A,4331.9039,S,17234.4750,E,0.11,26.59,311010,,*27
$GPGGA,040959.000,4331.9039,S,17234.4751,E,2,08,1.1,23.0,M,11.3,M,2.8,0000*5F
$GPGSA,A,3,20,31,32,03,16,13,23,06,,,,,2.2,1.1,1.9*3A
$GPRMC,040959.000,A,4331.9039,S,17234.4751,E,0.11,31.09,311010,,*24
$GPGGA,041000.000,4331.9039,S,17234.4752,E,2,08,1.1,23.1,M,11.3,M,0.8,0000*5B
$GPGSA,A,3,20,31,32,03,16,13,23,06,,,,,2.2,1.1,1.9*3A
$GPGSV,3,1,11,16,70,081,37,23,69,228,47,20,36,323,42,13,36,231,41*72
$GPGSV,3,2,11,32,26,351,40,31,24,110,41,06,18,044,36,03,16,031,31*71
$GPGSV,3,3,11,07,08,276,34,29,06,147,22,42,30,317,39*47
$GPRMC,041000.000,A,4331.9039,S,17234.4752,E,0.11,22.43,311010,,*2F
$GPGGA,041001.000,4331.9039,S,17234.4753,E,2,08,1.1,23.1,M,11.3,M,0.8,0000*5B
$GPGSA,A,3,20,31,32,03,16,13,23,06,,,,,2.2,1.1,1.9*3A
$GPRMC,041001.000,A,4331.9039,S,17234.4753,E,0.13,21.22,311010,,*29
$GPGGA,041002.000,4331.9039,S,17234.4753,E,2,08,1.1,23.1,M,11.3,M,0.8,0000*58
$GPGSA,A,3,20,31,32,03,16,13,23,06,,,,,2.2,1.1,1.9*3A
$GPRMC,041002.000,A,4331.9039,S,17234.4753,E,0.13,23.53,311010,,*2E
$GPGGA,041003.000,4331.9039,S,17234.4754,E,2,08,1.1,23.1,M,11.3,M,0.8,0000*5E
$GPGSA,A,3,20,31,32,03,16,13,23,06,,,,,2.2,1.1,1.9*3A
$GPRMC,041003.000,A,4331.9039,S,17234.4754,E,0.09,28.86,311010,,*20
$GPGGA,041004.000,4331.9039,S,17234.4755,E,2,08,1.1,23.1,M,11.3,M,0.8,0000*58
$GPGSA,A,3,20,31,32,03,16,13,23,06,,,,,2.2,1.1,1.9*3A
$GPRMC,041004.000,A,4331.9039,S,17234.4755,E,0.09,28.56,311010,,*2B
$GPGGA,041005.000,4331.9039,S,17234.4755,E,2,08,1.1,23.2,M,11.3,M,1.8,0000*5B
$GPGSA,A,3,20,31,32,03,16,13,23,06,,,,,2.2,1.1,1.9*3A
$GPGSV,3,1,11,16,70,081,37,23,69,228,47,20,36,323,42,13,36,231,41*72
$GPGSV,3,2,11,32,26,351,41,31,24,110,42,06,18,044,36,03,16,031,32*70
$GPGSV,3,3,11,07,08,276,33,29,06,147,21,42,30,317,38*42
$GPRMC,041005.000,A,4331.9039,S,17234.4755,E,0.10,26.46,311010,,*2D
$GPGGA,041006.000,4331.9039,S,17234.4756,E,2,08,1.1,23.2,M,11.3,M,2.8,0000*58
$GPGSA,A,3,20,31,32,03,16,13,23,06,,,,,2.2,1.1,1.9*3A
$GPRMC,041006.000,A,4331.9039,S,17234.4756,E,0.09,29.59,311010,,*24
$GPGGA,041007.000,4331.9039,S,17234.4757,E,2,08,1.1,23.2,M,11.3,M,0.8,0000*5A
$GPGSA,A,3,20,31,32,03,16,13,23,06,,,,,2.2,1.1,1.9*3A
$GPRMC,041007.000,A,4331.9039,S,17234.4757,E,0.09,48.86,311010,,*21
$GPGGA,041008.000,4331.9039,S,17234.4757,E,2,08,1.1,23.2,M,11.3,M,0.8,0000*55
$GPGSA,A,3,20,31,32,03,16,13,23,06,,,,,2.2,1.1,1.9*3A
$GPRMC,041008.000,A,4331.9039,S,17234.4757,E,0.09,41.21,311010,,*2A
$GPGGA,041009.000,4331.9039,S,17234.4758,E,2,08,1.1,23.3,M,11.3,M,0.8,0000*5A
$GPGSA,A,3,20,31,32,03,16,13,23,06,,,,,2.2,1.1,1.9*3A
$GPRMC,041009.000,A,4331.9039,S,17234.4758,E,0.11,37.02,311010,,*2D
$GPGGA,041010.000,4331.9039,S,17234.4758,E,2,08,1.1,23.3,M,11.3,M,0.8,0000*52
$GPGSA,A,3,20,31,32,03,16,13,23,06,,,,,2.2,1.1,1.9*3A
$GPGSV,3,1,11,16,70,081,36,23,69,228,47,20,36,323,42,13,36,231,41*73
$GPGSV,3,2,11,32,26,351,41,31,24,110,42,06,18,044,36,03,16,031,32*70
$GPGSV,3,3,11,07,08,276,33,29,06,147,20,42,30,317,38*43
$GPRMC,041010.000,A,4331.9039,S,17234.4758,E,0.11,26.72,311010,,*22
$GPGGA,041011.000,4331.9039,S,17234.4759,E,2,08,1.1,23.3,M,11.3,M,1.8,0000*53
$GPGSA,A,3,20,31,32,03,16,13,23,06,,,,,2.2,1.1,1.9*3A
$GPRMC,041011.000,A,4331.9039,S,17234.4759,E,0.12,40.02,311010,,*26
$GPGGA,041012.000,4331.9039,S,17234.4760,E,2,08,1.1,23.3,M,11.3,M,0.8,0000*5B
$GPGSA,A,3,20,31,32,03,16,13,23,06,,,,,2.2,1.1,1.9*3A
$GPRMC,041012.000,A,4331.9039,S,17234.4760,E,0.11,35.35,311010,,*2A
$GPGGA,041013.000,4331.9039,S,17234.4760,E,2,08,1.1,23.3,M,11.3,M,0.8,0000*5A
$GPGSA,A,3,20,31,32,03,16,13,23,06,,,,,2.2,1.1,1.9*3A
$GPRMC,041013.000,A,4331.9039,S,17234.4760,E,0.11,27.37,311010,,*2A
$GPGGA,041014.000,4331.9039,S,17234.4761,E,2,08,1.1,23.3,M,11.3,M,0.8,0000*5C
$GPGSA,A,3,20,31,32,03,16,13,23,06,,,,,2.2,1.1,1.9*3A
$GPRMC,041014.000,A,4331.9039,S,17234.4761,E,0.10,31.19,311010,,*26
$GPGGA,041015.000,4331.9039,S,17234.4761,E,2,08,1.1,23.3,M,11.3,M,0.8,0000*5D
$GPGSA,A,3,20,31,32,03,16,13,23,06,,,,,2.2,1.1,1.9*3A
$GPGSV,3,1,11,16,70,081,36,23,69,228,47,20,36,323,43,13,36,231,41*72
$GPGSV,3,2,11,32,26,351,41,31,24,110,42,06,18,044,36,03,16,031,33*71
$GPGSV,3,3,11,07,08,276,33,29,06,147,19,42,30,317,38*49
$GPRMC,041015.000,A,4331.9039,S,17234.4761,E,0.08,51.82,311010,,*2A
$GPGGA,041016.000,4331.9039,S,17234.4762,E,2,08,1.1,23.3,M,11.3,M,1.8,0000*5C
$GPGSA,A,3,20,31,32,03,16,13,23,06,,,,,2.2,1.1,1.9*3A
$GPRMC,041016.000,A,4331.9039,S,17234.4762,E,0.08,44.72,311010,,*21
$GPGGA,041017.000,4331.9039,S,17234.4762,E,2,08,1.1,23.3,M,11.3,M,0.8,0000*5C
$GPGSA,A,3,20,31,32,03,16,13,23,06,,,,,2.2,1.1,1.9*3A
$GPRMC,041017.000,A,4331.9039,S,17234.4762,E,0.08,45.90,311010,,*2D
$GPGGA,041018.000,4331.9039,S,17234.4763,E,2,08,1.1,23.4,M,11.3,M,1.8,0000*54
$GPGSA,A,3,20,31,32,03,16,13,23,06,,,,,2.2,1.1,1.9*3A
$GPRMC,041018.000,A,4331.9039,S,17234.4763,E,0.08,50.00,311010,,*2E
$GPGGA,041019.000,4331.9039,S,17234.4763,E,2,08,1.1,23.4,M,11.3,M,0.8,0000*54
$GPGSA,A,3,20,31,32,03,16,13,23,06,,,,,2.2,1.1,1.9*3A
$GPRMC,041019.000,A,4331.9039,S,17234.4763,E,0.09,325.54,311010,,*1E
$GPGGA,041020.000,4331.9039,S,17234.4762,E,2,08,1.1,23.4,M,11.3,M,0.8,0000*5F
$GPGSA,A,3,20,31,32,03,16,13,23,06,,,,,2.2,1.1,1.9*3A
$GPGSV,3,1,11,16,70,081,36,23,69,228,46,20,36,323,43,13,36,231,42*70
$GPGSV,3,2,11,32,26,351,41,31,24,110,43,06,18,044,36,03,16,031,31*72
$GPGSV,3,3,11,07,08,276,33,29,06,147,25,42,30,317,38*46
$GPRMC,041020.000,A,4331.9039,S,17234.4762,E,0.56,271.66,311010,,*1E
$GPGGA,041021.000,4331.9040,S,17234.4755,E,2,08,1.1,23.4,M,11.3,M,0.8,0000*54
$GPGSA,A,3,20,31,32,03,16,13,23,06,,,,,2.2,1.1,1.9*3A
$GPRMC,041021.000,A,4331.9040,S,17234.4755,E,3.24,265.68,311010,,*18
$GPGGA,041022.000,4331.9041,S,17234.4736,E,2,08,1.1,23.4,M,11.3,M,1.8,0000*52
$GPGSA,A,3,20,31,32,03,16,13,23,06,,,,,2.2,1.1,1.9*3A
$GPRMC,041022.000,A,4331.9041,S,17234.4736,E,6.52,264.95,311010,,*18
$GPGGA,041023.000,4331.9043,S,17234.4707,E,2,08,1.1,23.5,M,11.3,M,0.8,0000*53
$GPGSA,A,3,20,31,32,03,16,13,23,06,,,,,2.2,1.1,1.9*3A
$GPRMC,041023.000,A,4331.9043,S,17234.4707,E,8.39,267.35,311010,,*13
$GPGGA,041024.000,4331.9042,S,17234.4671,E,2,08,1.1,23.5,M,11.3,M,1.8,0000*54
$GPGSA,A,3,20,31,32,03,16,13,23,06,,,,,2.2,1.1,1.9*3A
$GPRMC,041024.000,A,4331.9042,S,17234.4671,E,10.02,275.93,311010,,*2B
$GPGGA,041025.000,4331.9035,S,17234.4633,E,2,08,1.1,23.6,M,11.3,M,0.8,0000*51
$GPGSA,A,3,20,31,32,03,16,13,23,06,,,,,2.2,1.1,1.9*3A
$GPGSV,3,1,11,16,70,081,31,23,69,228,46,20,36,323,42,13,36,231,42*76
$GPGSV,3,2,11,32,26,351,43,31,24,110,38,06,18,044,31,03,16,031,41*7C
$GPGSV,3,3,11,07,08,276,,29,06,147,29,42,30,317,38*4A
$GPRMC,041025.000,A,4331.9035,S,17234.4633,E,10.98,291.07,311010,,*28
$GPGGA,041026.000,4331.9018,S,17234.4595,E,2,08,1.1,23.7,M,11.3,M,0.8,0000*53
$GPGSA,A,3,20,31,32,03,16,13,23,06,,,,,2.2,1.1,1.9*3A
$GPRMC,041026.000,A,4331.9018,S,17234.4595,E,12.34,313.15,311010,,*27
$GPGGA,041027.000,4331.8988,S,17234.4565,E,2,08,1.1,23.9,M,11.3,M,0.8,0000*52
$GPGSA,A,3,20,31,32,03,16,13,23,06,,,,,2.2,1.1,1.9*3A
$GPRMC,041027.000,A,4331.8988,S,17234.4565,E,14.16,332.91,311010,,*21
$GPGGA,041028.000,4331.8950,S,17234.4546,E,2,08,1.1,23.8,M,11.3,M,1.8,0000*59
$GPGSA,A,3,20,31,32,03,16,13,23,06,,,,,2.2,1.1,1.9*3A
$GPRMC,041028.000,A,4331.8950,S,17234.4546,E,15.48,345.86,311010,,*26
$GPGGA,041029.000,4331.8907,S,17234.4535,E,2,08,1.1,23.8,M,11.3,M,2.8,0000*5D
$GPGSA,A,3,20,31,32,03,16,13,23,06,,,,,2.2,1.1,1.9*3A
$GPRMC,041029.000,A,4331.8907,S,17234.4535,E,15.94,353.86,311010,,*27
$GPGGA,041030.000,4331.8861,S,17234.4530,E,2,08,1.1,23.9,M,11.3,M,3.8,0000*51
$GPGSA,A,3,20,31,32,03,16,13,23,06,,,,,2.2,1.1,1.9*3A
$GPGSV,3,1,11,16,70,081,43,23,69,228,48,20,36,323,41,13,36,231,47*7B
$GPGSV,3,2,11,32,26,351,38,31,24,110,39,06,18,044,34,03,16,031,39*7B
$GPGSV,3,3,11,07,08,276,22,29,06,147,29,42,30,317,37*45
$GPRMC,041030.000,A,4331.8861,S,17234.4530,E,16.66,356.71,311010,,*28
$GPGGA,041031.000,4331.8813,S,17234.4524,E,2,08,1.1,23.8,M,11.3,M,0.8,0000*52
$GPGSA,A,3,20,31,32,03,16,13,23,06,,,,,2.2,1.1,1.9*3A
$GPRMC,041031.000,A,4331.8813,S,17234.4524,E,18.22,353.88,311010,,*24
$GPGGA,041032.000,4331.8760,S,17234.4515,E,2,08,1.1,23.8,M,11.3,M,0.8,0000*58
$GPGSA,A,3,20,31,32,03,16,13,23,06,,,,,2.2,1.1,1.9*3A
$GPRMC,041032.000,A,4331.8760,S,17234.4515,E,19.67,351.63,311010,,*29
$GPGGA,041033.000,4331.8704,S,17234.4503,E,2,08,1.1,23.7,M,11.3,M,0.8,0000*53
$GPGSA,A,3,20,31,32,03,16,13,23,06,,,,,2.2,1.1,1.9*3A
$GPRMC,041033.000,A,4331.8704,S,17234.4503,E,20.87,351.24,311010,,*2A
$GPGGA,041034.000,4331.8645,S,17234.4490,E,2,08,1.1,23.6,M,11.3,M,1.8,0000*5B
$GPGSA,A,3,20,31,32,03,16,13,23,06,,,,,2.2,1.1,1.9*3A
$GPRMC,041034.000,A,4331.8645,S,17234.4490,E,21.89,350.98,311010,,*2B
$GPGGA,041035.000,4331.8583,S,17234.4478,E,2,08,1.1,23.6,M,11.3,M,2.8,0000*56
$GPGSA,A,3,20,31,32,03,16,13,23,06,,,,,2.2,1.1,1.9*3A
$GPGSV,3,1,11,16,70,081,41,23,69,228,48,20,36,323,40,13,36,231,46*79
$GPGSV,3,2,11,32,26,351,28,31,24,110,40,06,18,044,31,03,16,031,35*7D
$GPGSV,3,3,11,07,08,276,39,29,06,147,29,42,30,317,37*4F
$GPRMC,041035.000,A,4331.8583,S,17234.4478,E,22.81,352.84,311010,,*21
$GPGGA,041036.000,4331.8519,S,17234.4467,E,2,07,1.1,23.5,M,11.3,M,3.8,0000*55
$GPGSA,A,3,20,31,32,03,16,13,23,,,,,,2.2,1.1,1.9*3C
$GPRMC,041036.000,A,4331.8519,S,17234.4467,E,23.50,353.37,311010,,*2B
$GPGGA,041037.000,4331.8453,S,17234.4456,E,2,07,1.1,23.5,M,11.3,M,0.8,0000*5A
$GPGSA,A,3,20,31,32,03,16,13,23,,,,,,2.2,1.1,1.9*3C
$GPRMC,041037.000,A,4331.8453,S,17234.4456,E,24.18,353.56,311010,,*2B
$GPGGA,041038.000,4331.8385,S,17234.4446,E,2,08,1.1,23.4,M,11.3,M,0.8,0000*56
$GPGSA,A,3,20,31,32,03,16,13,23,06,,,,,2.2,1.1,1.9*3A
$GPRMC,041038.000,A,4331.8385,S,17234.4446,E,24.79,353.61,311010,,*2A
$GPGGA,041039.000,4331.8316,S,17234.4435,E,2,07,1.1,23.3,M,11.3,M,1.8,0000*50
$GPGSA,A,3,20,31,32,03,16,13,23,,,,,,2.2,1.1,1.9*3C
$GPRMC,041039.000,A,4331.8316,S,17234.4435,E,25.00,354.36,311010,,*2F
$GPGGA,041040.000,4331.8246,S,17234.4427,E,2,07,1.1,23.3,M,11.3,M,2.8,0000*5A
$GPGSA,A,3,20,31,32,03,16,13,23,,,,,,2.2,1.1,1.9*3C
$GPGSV,3,1,11,16,70,081,38,23,69,228,49,20,36,323,41,13,36,231,45*74
$GPGSV,3,2,11,32,26,351,34,31,24,110,40,06,18,044,,03,16,031,35*72
$GPGSV,3,3,11,07,08,276,30,29,06,147,,42,30,317,35*4F
$GPRMC,041040.000,A,4331.8246,S,17234.4427,E,25.12,355.30,311010,,*22
$GPGGA,041041.000,4331.8176,S,17234.4419,E,2,07,1.1,23.2,M,11.3,M,3.8,0000*56
$GPGSA,A,3,20,31,32,03,16,13,23,,,,,,2.2,1.1,1.9*3C
$GPRMC,041041.000,A,4331.8176,S,17234.4419,E,25.23,355.95,311010,,*23
$GPGGA,041042.000,4331.8105,S,17234.4412,E,2,08,1.1,23.1,M,11.3,M,0.8,0000*55
$GPGSA,A,3,20,31,32,03,16,13,23,06,,,,,2.2,1.1,1.9*3A
$GPRMC,041042.000,A,4331.8105,S,17234.4412,E,25.67,356.38,311010,,*2B
$GPGGA,041043.000,4331.8033,S,17234.4405,E,2,08,1.1,23.0,M,11.3,M,0.8,0000*57
$GPGSA,A,3,20,31,32,03,16,13,23,06,,,,,2.2,1.1,1.9*3A
$GPRMC,041043.000,A,4331.8033,S,17234.4405,E,25.89,355.76,311010,,*21
$GPGGA,041044.000,4331.7960,S,17234.4397,E,2,08,1.1,22.9,M,11.3,M,0.8,0000*54
$GPGSA,A,3,20,31,32,03,16,13,23,06,,,,,2.2,1.1,1.9*3A
$GPRMC,041044.000,A,4331.7960,S,17234.4397,E,26.25,355.29,311010,,*25
$GPGGA,041045.000,4331.7887,S,17234.4388,E,2,08,1.1,22.8,M,11.3,M,0.8,0000*52
$GPGSA,A,3,20,31,32,03,16,13,23,06,,,,,2.2,1.1,1.9*3A
$GPGSV,3,1,11,16,70,081,38,23,69,228,49,20,36,323,41,13,36,231,43*72
$GPGSV,3,2,11,32,26,351,36,31,24,110,39,06,18,044,32,03,16,031,34*7E
$GPGSV,3,3,11,07,08,276,40,29,06,147,26,42,30,317,36*4F
$GPRMC,041045.000,A,4331.7887,S,17234.4388,E,26.54,354.64,311010,,*2C
$GPGGA,041046.000,4331.7813,S,17234.4378,E,2,08,1.1,22.8,M,11.3,M,1.8,0000*52
$GPGSA,A,3,20,31,32,03,16,13,23,06,,,,,2.2,1.1,1.9*3A
$GPRMC,041046.000,A,4331.7813,S,17234.4378,E,26.39,353.67,311010,,*22
$GPGGA,041047.000,4331.7740,S,17234.4366,E,2,07,1.1,22.7,M,11.3,M,2.8,0000*56
$GPGSA,A,3,20,31,32,03,16,13,23,,,,,,2.2,1.1,1.9*3C
$GPRMC,041047.000,A,4331.7740,S,17234.4366,E,26.62,353.09,311010,,*23
$GPGGA,041048.000,4331.7666,S,17234.4354,E,2,07,1.1,22.7,M,11.3,M,3.8,0000*5C
$GPGSA,A,3,20,31,32,03,16,13,23,,,,,,2.2,1.1,1.9*3C
$GPRMC,041048.000,A,4331.7666,S,17234.4354,E,26.62,353.87,311010,,*2E
$GPGGA,041049.000,4331.7592,S,17234.4343,E,2,07,1.1,22.5,M,11.3,M,0.8,0000*52
$GPGSA,A,3,20,31,32,03,16,13,23,,,,,,2.2,1.1,1.9*3C
$GPRMC,041049.000,A,4331.7592,S,17234.4343,E,26.38,354.08,311010,,*2E
$GPGGA,041050.000,4331.7519,S,17234.4333,E,2,07,1.1,22.4,M,11.3,M,0.8,0000*5F
$GPGSA,A,3,20,31,32,03,16,13,23,,,,,,2.2,1.1,1.9*3C
$GPGSV,3,1,11,16,70,081,38,23,69,228,49,20,36,323,41,13,36,231,43*72
$GPGSV,3,2,11,32,26,351,36,31,24,110,40,06,18,044,,03,16,031,34*71
$GPGSV,3,3,11,07,08,276,30,29,06,147,,42,30,317,35*4F
$GPRMC,041050.000,A,4331.7519,S,17234.4333,E,26.38,354.54,311010,,*2B
$GPGGA,041051.000,4331.7446,S,17234.4323,E,2,07,1.1,22.2,M,11.3,M,0.8,0000*52
$GPGSA,A,3,20,31,32,03,16,13,23,,,,,,2.2,1.1,1.9*3C
$GPRMC,041051.000,A,4331.7446,S,17234.4323,E,26.44,354.78,311010,,*25
$GPGGA,041052.000,4331.7373,S,17234.4313,E,2,08,1.1,21.8,M,11.3,M,0.8,0000*55
$GPGSA,A,3,06,20,31,32,03,16,13,23,,,,,2.2,1.1,1.9*3A
$GPRMC,041052.000,A,4331.7373,S,17234.4313,E,26.50,353.82,311010,,*23
$GPGGA,041053.000,4331.7299,S,17234.4302,E,2,08,1.1,21.8,M,11.3,M,1.8,0000*50
$GPGSA,A,3,06,20,31,32,03,16,13,23,,,,,2.2,1.1,1.9*3A
$GPRMC,041053.000,A,4331.7299,S,17234.4302,E,26.36,354.20,311010,,*28
$GPGGA,041054.000,4331.7226,S,17234.4292,E,2,08,1.1,21.7,M,11.3,M,2.8,0000*57
$GPGSA,A,3,06,20,31,32,03,16,13,23,,,,,2.2,1.1,1.9*3A
$GPRMC,041054.000,A,4331.7226,S,17234.4292,E,26.35,354.10,311010,,*23
$GPGGA,041055.000,4331.7153,S,17234.4282,E,2,08,1.1,21.7,M,11.3,M,3.8,0000*57
$GPGSA,A,3,06,20,31,32,03,16,13,23,,,,,2.2,1.1,1.9*3A
$GPGSV,3,1,11,16,70,081,33,23,69,228,49,20,36,323,41,13,36,231,43*79
$GPGSV,3,2,11,32,26,351,26,31,24,110,41,06,18,044,25,03,16,031,34*76
$GPGSV,3,3,11,07,08,276,33,29,06,147,30,42,30,317,36*4C
$GPRMC,041055.000,A,4331.7153,S,17234.4282,E,26.42,353.87,311010,,*2B
$GPGGA,041056.000,4331.7080,S,17234.4270,E,2,07,1.1,21.7,M,11.3,M,0.8,0000*5A
$GPGSA,A,3,20,31,32,03,16,13,23,,,,,,2.2,1.1,1.9*3C
$GPRMC,041056.000,A,4331.7080,S,17234.4270,E,26.67,353.51,311010,,*26
$GPGGA,041057.000,4331.7005,S,17234.4259,E,2,07,1.1,21.6,M,11.3,M,0.8,0000*5C
$GPGSA,A,3,20,31,32,03,16,13,23,,,,,,2.2,1.1,1.9*3C
$GPRMC,041057.000,A,4331.7005,S,17234.4259,E,27.00,353.63,311010,,*20
$GPGGA,041058.000,4331.6930,S,17234.4248,E,2,07,1.1,21.6,M,11.3,M,0.8,0000*5D
$GPGSA,A,3,20,31,32,03,16,13,23,,,,,,2.2,1.1,1.9*3C
$GPRMC,041058.000,A,4331.6930,S,17234.4248,E,27.14,353.80,311010,,*29
$GPGGA,041059.000,4331.6855,S,17234.4236,E,2,08,1.1,21.4,M,11.3,M,1.8,0000*5B
$GPGSA,A,3,06,20,31,32,03,16,13,23,,,,,2.2,1.1,1.9*3A
$GPRMC,041059.000,A,4331.6855,S,17234.4236,E,27.25,353.97,311010,,*27
