,1.7,0.9,1.4*36

$GPRMC,061227.000,A,4332.0691,S,17235.0763,E,0.12,46.24,141110,,*25

$GPGGA,061228.000,4332.0690,S,17235.0763,E,2,09,0.9,20.7,M,11.3,M,0.8,0000*54

$GPGSA,A,3,03,05,08,13,07,06,19,23,28,,,,1.7,0.9,1.4*36

$GPRMC,061228.000,A,4332.0690,S,17235.0763,E,0.13,43.71,141110,,*2F

$GPGGA,061229.000,4332.0690,S,17235.0763,E,2,09,0.9,20.7,M,11.3,M,0.8,0000*55

$GPGSA,A,3,03,05,08,13,07,06,19,23,28,,,,1.7,0.9,1.4*36

$GPRMC,061229.000,A,4332.0690,S,17235.0763,E,0.14,37.37,141110,,*28

$GPGGA,061230.000,4332.0690,S,17235.0763,E,2,09,0.9,20.7,M,11.3,M,1.8,0000*5C

$GPGSA,A,3,03,05,08,13,07,06,19,23,28,,,,1.7,0.9,1.4*36

$GPRMC,061230.000,A,4332.0690,S,17235.0763,E,0.14,43.22,141110,,*27

$GPGGA,061231.000,4332.0690,S,17235.0763,E,2,09,0.9,20.7,M,11.3,M,2.8,0000*5E

$GPGSA,A,3,03,05,08,13,07,06,19,23,28,,,,1.7,0.9,1.4*36

$GPGSV,3,1,12,07,74,207,44,19,57,073,42,13,48,350,42,08,41,234,41*72

$GPGSV,3,2,12,03,41,121,41,06,28,129,33,27,27,065,,28,20,289,35*72

$GPGSV,3,3,12,23,20,009,39,10,09,275,,05,07,234,24,11,06,023,*74

$GPRMC,061231.000,A,4332.0690,S,17235.0763,E,0.13,36.27,141110,,*26

$GPGGA,061232.000,4332.0690,S,17235.0763,E,2,09,0.9,20.7,M,11.3,M,0.8,0000*5F

$GPGSA,A,3,03,05,08,13,07,06,19,23,28,,,,1.7,0.9,1.4*36

$GPRMC,061232.000,A,4332.0690,S,17235.0763,E,0.13,39.09,141110,,*26

$GPGGA,061233.000,4332.0690,S,17235.0764,E,2,09,0.9,20.7,M,11.3,M,0.8,0000*59

$GPGSA,A,3,03,05,08,13,07,06,19,23,28,,,,1.7,0.9,1.4*36

$GPRMC,061233.000,A,4332.0690,S,17235.0764,E,0.11,60.55,141110,,*27

$GPGGA,061234.000,4332.0690,S,17235.0764,E,2,09,0.9,20.7,M,11.3,M,0.8,0000*5E

$GPGSA,A,3,03,05,08,13,07,06,19,23,28,,,,1.7,0.9,1.4*36

$GPRMC,061234.000,A,4332.0690,S,17235.0764,E,0.11,76.69,141110,,*28

$GPGGA,061235.000,4332.0690,S,17235.0764,E,2,09,0.9,20.7,M,11.3,M,1.8,0000*5E

$GPGSA,A,3,03,05,08,13,07,06,19,23,28,,,,1.7,0.9,1.4*36

$GPRMC,061235.000,A,4332.0690,S,17235.0764,E,0.10,66.50,141110,,*23

$GPGGA,061236.000,4332.0690,S,17235.0764,E,2,09,0.9,20.7,M,11.3,M,2.8,0000*5E

$GPGSA,A,3,03,05,08,13,07,06,19,23,28,,,,1.7,0.9,1.4*36

$GPGSV,3,1,12,07,74,207,44,19,57,073,42,13,48,350,42,08,41,234,41*72

$GPGSV,3,2,12,03,41,121,41,06,28,129,33,27,27,065,,28,20,289,34*73

$GPGSV,3,3,12,23,20,009,39,10,09,275,,05,07,234,25,11,06,023,*75

$GPRMC,061236.000,A,4332.0690,S,17235.0764,E,0.11,68.38,141110,,*21

$GPGGA,061237.000,4332.0690,S,17235.0764,E,2,09,0.9,20.8,M,11.3,M,3.8,0000*51

$GPGSA,A,3,03,05,08,13,07,06,19,23,28,,,,1.7,0.9,1.4*36

$GPRMC,061237.000,A,4332.0690,S,17235.0764,E,0.10,71.10,141110,,*23

$GPGGA,061238.000,4332.0690,S,17235.0764,E,2,09,0.9,20.8,M,11.3,M,0.8,0000*5D

$GPGSA,A,3,03,05,08,13,07,06,19,23,28,,,,1.7,0.9,1.4*36

$GPRMC,061238.000,A,4332.0690,S,17235.0764,E,0.09,77.60,141110,,*25

$GPGGA,061239.000,4332.0690,S,17235.0764,E,2,09,0.9,20.8,M,11.3,M,0.8,0000*5C

$GPGSA,A,3,03,05,08,13,07,06,19,23,28,,,,1.7,0.9,1.4*36

$GPRMC,061239.000,A,4332.0690,S,17235.0764,E,0.13,41.08,141110,,*24

$GPGGA,061240.000,4332.0690,S,17235.0764,E,2,09,0.9,20.8,M,11.3,M,0.8,0000*52

$GPGSA,A,3,03,05,08,13,07,06,19,23,28,,,,1.7,0.9,1.4*36

$GPRMC,061240.000,A,4332.0690,S,17235.0764,E,0.14,41.24,141110,,*23

$GPGGA,061241.000,4332.0690,S,17235.0764,E,2,09,0.9,20.8,M,11.3,M,0.8,0000*53

$GPGSA,A,3,03,05,08,13,07,06,19,23,28,,,,1.7,0.9,1.4*36

$GPGSV,3,1,12,07,74,207,44,19,57,073,42,13,48,350,42,08,41,234,41*72

$GPGSV,3,2,12,03,41,121,41,06,28,129,33,27,27,065,,28,20,289,34*73

$GPGSV,3,3,12,23,20,009,39,10,09,275,,05,07,234,25,11,06,023,*75

$GPRMC,061241.000,A,4332.0690,S,17235.0764,E,0.12,38.11,141110,,*2C

$GPGGA,061242.000,4332.0690,S,17235.0764,E,2,09,0.9,20.8,M,11.3,M,1.8,0000*51

$GPGSA,A,3,03,05,08,13,07,06,19,23,28,,,,1.7,0.9,1.4*36

$GPRMC,061242.000,A,4332.0690,S,17235.0764,E,0.13,42.30,141110,,*20

$GPGGA,061243.000,4332.0690,S,17235.0764,E,2,09,0.9,20.8,M,11.3,M,0.8,0000*51

$GPGSA,A,3,03,05,08,13,07,06,19,23,28,,,,1.7,0.9,1.4*36

$GPRMC,061243.000,A,4332.0690,S,17235.0764,E,0.12,42.13,141110,,*21

$GPGGA,061244.000,4332.0690,S,17235.0764,E,2,09,0.9,20.8,M,11.3,M,0.8,0000*56

$GPGSA,A,3,03,05,08,13,07,06,19,23,28,,,,1.7,0.9,1.4*36

$GPRMC,061244.000,A,4332.0690,S,17235.0764,E,0.13,36.91,141110,,*2E

$GPGGA,061245.000,4332.0689,S,17235.0764,E,2,09,0.9,20.8,M,11.3,M,0.8,0000*5F

$GPGSA,A,3,03,05,08,13,07,06,19,23,28,,,,1.7,0.9,1.4*36

$GPRMC,061245.000,A,4332.0689,S,17235.0764,E,0.11,40.99,141110,,*2C

$GPGGA,061246.000,4332.0689,S,17235.0764,E,2,09,0.9,20.8,M,11.3,M,0.8,0000*5C

$GPGSA,A,3,03,05,08,13,07,06,19,23,28,,,,1.7,0.9,1.4*36

$GPGSV,3,1,12,07,74,207,44,19,57,074,42,13,48,350,41,08,41,234,40*77

$GPGSV,3,2,12,03,41,121,41,06,28,130,33,27,27,065,,28,20,289,34*7B

$GPGSV,3,3,12,23,19,009,39,10,09,275,,05,07,234,25,11,06,023,*7F

$GPRMC,061246.000,A,4332.0689,S,17235.0764,E,0.11,43.82,141110,,*26

$GPGGA,061247.000,4332.0689,S,17235.0764,E,2,09,0.9,20.8,M,11.3,M,1.8,0000*5C

$GPGSA,A,3,03,05,08,13,07,06,19,23,28,,,,1.7,0.9,1.4*36

$GPRMC,061247.000,A,4332.0689,S,17235.0764,E,0.31,29.95,141110,,*2F

$GPGGA,061248.000,4332.0687,S,17235.0765,E,2,09,0.9,20.9,M,11.3,M,2.8,0000*5E

$GPGSA,A,3,03,05,08,13,07,06,19,23,28,,,,1.7,0.9,1.4*36

$GPRMC,061248.000,A,4332.0687,S,17235.0765,E,1.18,26.27,141110,,*23

$GPGGA,061249.000,4332.0684,S,17235.0767,E,2,09,0.9,20.8,M,11.3,M,3.8,0000*5E

$GPGSA,A,3,03,05,08,13,07,06,19,23,28,,,,1.7,0.9,1.4*36

$GPRMC,061249.000,A,4332.0684,S,17235.0767,E,1.72,25.52,141110,,*2E

$GPGGA,061250.000,4332.0680,S,17235.0769,E,2,09,0.9,20.9,M,11.3,M,0.8,0000*5E

$GPGSA,A,3,03,05,08,13,07,06,19,23,28,,,,1.7,0.9,1.4*36

$GPRMC,061250.000,A,4332.0680,S,17235.0769,E,1.26,25.74,141110,,*29

$GPGGA,061251.000,4332.0678,S,17235.0771,E,2,09,0.9,20.9,M,11.3,M,0.8,0000*51

$GPGSA,A,3,03,05,08,13,07,06,19,23,28,,,,1.7,0.9,1.4*36

$GPGSV,3,1,12,07,74,207,44,19,57,074,42,13,48,350,42,08,41,234,40*74

$GPGSV,3,2,12,03,41,121,40,06,28,130,23,27,27,065,,28,20,289,34*7B

$GPGSV,3,3,12,23,19,009,39,10,09,275,,05,07,234,20,11,06,023,*7A

$GPRMC,061251.000,A,4332.0678,S,17235.0771,E,0.27,39.41,141110,,*2D

$GPGGA,061252.000,4332.0678,S,17235.0771,E,2,08,1.1,20.8,M,11.3,M,0.8,0000*5B

$GPGSA,A,3,03,05,08,13,07,19,23,28,,,,,1.9,1.1,1.6*35

$GPRMC,061252.000,A,4332.0678,S,17235.0771,E,0.10,57.13,141110,,*25

$GPGGA,061253.000,4332.0678,S,17235.0771,E,2,08,1.1,20.8,M,11.3,M,1.8,0000*5B

$GPGSA,A,3,03,05,08,13,07,19,23,28,,,,,1.9,1.1,1.6*35

$GPRMC,061253.000,A,4332.0678,S,17235.0771,E,0.09,55.93,141110,,*26

$GPGGA,061254.000,4332.0678,S,17235.0771,E,2,08,1.1,20.7,M,11.3,M,2.8,0000*50

$GPGSA,A,3,03,05,08,13,07,19,23,28,,,,,1.9,1.1,1.6*35

$GPRMC,061254.000,A,4332.0678,S,17235.0771,E,0.23,36.90,141110,,*2F

$GPGGA,061255.000,4332.0676,S,17235.0772,E,2,09,0.9,20.7,M,11.3,M,3.8,0000*55

$GPGSA,A,3,03,05,08,13,07,06,19,23,28,,,,1.7,0.9,1.4*36

$GPRMC,061255.000,A,4332.0676,S,17235.0772,E,1.38,28.30,141110,,*2D

$GPGGA,061256.000,4332.0672,S,17235.0775,E,2,09,0.9,20.6,M,11.3,M,0.8,0000*57

$GPGSA,A,3,03,05,08,13,07,06,19,23,28,,,,1.7,0.9,1.4*36

$GPGSV,3,1,12,07,74,207,43,19,57,074,43,13,48,350,43,08,41,234,40*73

$GPGSV,3,2,12,03,41,121,40,06,28,130,28,27,27,065,,28,20,289,35*71

$GPGSV,3,3,12,23,19,009,34,10,09,275,17,05,07,234,23,11,06,023,*72

$GPRMC,061256.000,A,4332.0672,S,17235.0775,E,2.12,26.23,141110,,*2A

$GPGGA,061257.000,4332.0666,S,17235.0779,E,2,09,0.9,20.4,M,11.3,M,0.8,0000*5D

$GPGSA,A,3,03,05,08,13,07,06,19,23,28,,,,1.7,0.9,1.4*36

$GPRMC,061257.000,A,4332.0666,S,17235.0779,E,2.95,25.15,141110,,*2B

$GPGGA,061258.000,4332.0659,S,17235.0784,E,2,09,0.9,20.3,M,11.3,M,0.8,0000*5B

$GPGSA,A,3,03,05,08,13,07,06,19,23,28,,,,1.7,0.9,1.4*36

$GPRMC,061258.000,A,4332.0659,S,17235.0784,E,2.97,24.99,141110,,*2D

$GPGGA,061259.000,4332.0653,S,17235.0788,E,2,09,0.9,20.0,M,11.3,M,1.8,0000*5E

$GPGSA,A,3,03,05,08,13,07,06,19,23,28,,,,1.7,0.9,1.4*36

$GPRMC,061259.000,A,4332.0653,S,17235.0788,E,2.28,25.25,141110,,*28

$GPGGA,061300.000,4332.0648,S,17235.0792,E,2,09,0.9,19.8,M,11.3,M,0.8,0000*51

$GPGSA,A,3,03,05,08,13,07,06,19,23,28,,,,1.7,0.9,1.4*36

$GPRMC,061300.000,A,4332.0648,S,17235.0792,E,2.04,26.85,141110,,*23

$GPGGA,061301.000,4332.0642,S,17235.0796,E,2,09,0.9,19.8,M,11.3,M,0.8,0000*5E

$GPGSA,A,3,03,05,08,13,07,06,19,23,28,,,,1.7,0.9,1.4*36

$GPGSV,3,1,12,07,74,207,43,19,57,074,43,13,48,350,44,08,41,234,40*74

$GPGSV,3,2,12,03,41,121,40,06,28,130,40,27,27,065,,28,20,289,36*7C

$GPGSV,3,3,12,23,19,009,35,10,09,275,18,05,07,234,22,11,06,023,*7D

$GPRMC,061301.000,A,4332.0642,S,17235.0796,E,2.61,24.54,141110,,*21

$GPGGA,061302.000,4332.0636,S,17235.0799,E,2,09,0.9,19.7,M,11.3,M,1.8,0000*5F

$GPGSA,A,3,03,05,08,13,07,06,19,23,28,,,,1.7,0.9,1.4*36

$GPRMC,061302.000,A,4332.0636,S,17235.0799,E,2.46,23.72,141110,,*28

$GPGGA,061303.000,4332.0630,S,17235.0804,E,2,09,0.9,19.6,M,11.3,M,2.8,0000*51

$GPGSA,A,3,03,05,08,13,07,06,19,23,28,,,,1.7,0.9,1.4*36

$GPRMC,061303.000,A,4332.0630,S,17235.0804,E,2.63,27.55,141110,,*22

$GPGGA,061304.000,4332.0624,S,17235.0809,E,2,09,0.9,19.5,M,11.3,M,3.8,0000*5C

$GPGSA,A,3,03,05,08,13,07,06,19,23,28,,,,1.7,0.9,1.4*36

$GPRMC,061304.000,A,4332.0624,S,17235.0809,E,2.62,32.55,141110,,*28

$GPGGA,061305.000,4332.0619,S,17235.0814,E,2,09,0.9,19.5,M,11.3,M,4.8,0000*58

$GPGSA,A,3,03,05,08,13,07,06,19,23,28,,,,1.7,0.9,1.4*36

$GPRMC,061305.000,A,4332.0619,S,17235.0814,E,2.31,36.30,141110,,*2A

$GPGGA,061306.000,4332.0614,S,17235.0819,E,2,09,0.9,19.4,M,11.3,M,5.8,0000*5B

$GPGSA,A,3,03,05,08,13,07,06,19,23,28,,,,1.7,0.9,1.4*36

$GPGSV,3,1,12,07,74,207,42,19,57,074,43,13,48,350,43,08,41,234,41*73

$GPGSV,3,2,12,03,41,121,35,06,28,130,32,27,27,065,,28,20,289,24*78

$GPGSV,3,3,12,23,19,009,35,10,09,275,29,05,07,234,21,11,06,023,*7C

$GPRMC,061306.000,A,4332.0614,S,17235.0819,E,2.06,34.90,141110,,*25

$GPGGA,061307.000,4332.0610,S,17235.0822,E,2,09,0.9,19.3,M,11.3,M,6.8,0000*52

$GPGSA,A,3,03,05,08,13,07,06,19,23,28,,,,1.7,0.9,1.4*36

$GPRMC,061307.000,A,4332.0610,S,17235.0822,E,1.78,27.49,141110,,*24

$GPGGA,061308.000,4332.0606,S,17235.0825,E,2,09,0.9,19.3,M,11.3,M,7.8,0000*5C

$GPGSA,A,3,03,05,08,13,07,06,19,23,28,,,,1.7,0.9,1.4*36

$GPRMC,061308.000,A,4332.0606,S,17235.0825,E,1.57,21.75,141110,,*2F

$GPGGA,061309.000,4332.0602,S,17235.0826,E,2,09,0.9,19.2,M,11.3,M,8.8,0000*54

$GPGSA,A,3,03,05,08,13,07,06,19,23,28,,,,1.7,0.9,1.4*36

$GPRMC,061309.000,A,4332.0602,S,17235.0826,E,1.68,14.38,141110,,*2A

$GPGGA,061310.000,4332.0597,S,17235.0827,E,2,09,0.9,19.2,M,11.3,M,9.8,0000*53

$GPGSA,A,3,03,05,08,13,07,06,19,23,28,,,,1.7,0.9,1.4*36

$GPRMC,061310.000,A,4332.0597,S,17235.0827,E,1.85,1.72,141110,,*15

$GPGGA,061311.000,4332.0593,S,17235.0827,E,2,09,0.9,19.1,M,11.3,M,10.8,0000*6D

$GPGSA,A,3,03,05,08,13,07,06,19,23,28,,,,1.7,0.9,1.4*36

$GPGSV,3,1,12,07,74,207,43,19,57,074,43,13,48,350,42,08,41,234,41*73

$GPGSV,3,2,12,03,41,121,37,06,28,130,29,27,27,065,,28,20,289,26*72

$GPGSV,3,3,12,23,19,009,36,10,09,275,22,05,07,234,21,11,06,023,*74

$GPRMC,061311.000,A,4332.0593,S,17235.0827,E,1.79,353.06,141110,,*14

$GPGGA,061312.000,4332.0590,S,17235.0827,E,2,08,1.0,19.1,M,11.3,M,11.8,0000*65

$GPGSA,A,3,03,05,08,13,07,06,19,23,,,,,1.7,1.0,1.5*35

$GPRMC,061312.000,A,4332.0590,S,17235.0827,E,0.41,356.66,141110,,*1D

$GPGGA,061313.000,4332.0590,S,17235.0825,E,2,09,0.9,19.3,M,11.3,M,12.8,0000*6E

$GPGSA,A,3,03,05,08,13,07,06,19,23,28,,,,1.7,0.9,1.4*36

$GPRMC,061313.000,A,4332.0590,S,17235.0825,E,0.08,54.68,141110,,*2C

$GPGGA,061314.000,4332.0590,S,17235.0826,E,2,09,0.9,19.6,M,11.3,M,13.8,0000*6E

$GPGSA,A,3,03,05,08,13,07,06,19,23,28,,,,1.7,0.9,1.4*36

$GPRMC,061314.000,A,4332.0590,S,17235.0826,E,0.24,126.48,141110,,*10

$GPGGA,061315.000,4332.0592,S,17235.0827,E,2,09,0.9,19.9,M,11.3,M,14.8,0000*64

$GPGSA,A,3,03,05,08,13,07,06,19,23,28,,,,1.7,0.9,1.4*36

$GPRMC,061315.000,A,4332.0592,S,17235.0827,E,1.07,136.88,141110,,*1F

$GPGGA,061316.000,4332.0598,S,17235.0834,E,2,09,0.9,19.9,M,11.3,M,15.8,0000*6E

$GPGSA,A,3,03,05,08,13,07,06,19,23,28,,,,1.7,0.9,1.4*36

$GPGSV,3,1,12,07,74,206,43,19,57,074,40,13,47,350,42,08,41,234,47*78

$GPGSV,3,2,12,03,40,121,36,06,28,130,35,27,27,065,,28,21,289,33*7A

$GPGSV,3,3,12,23,19,009,37,10,09,275,23,05,07,234,21,11,06,023,*74

$GPRMC,061316.000,A,4332.0598,S,17235.0834,E,4.12,134.59,141110,,*1B

$GPGGA,061317.000,4332.0610,S,17235.0854,E,2,09,0.9,19.9,M,11.3,M,16.8,0000*69

$GPGSA,A,3,03,05,08,13,07,06,19,23,28,,,,1.7,0.9,1.4*36

$GPRMC,061317.000,A,4332.0610,S,17235.0854,E,9.01,125.41,141110,,*19

$GPGGA,061318.000,4332.0625,S,17235.0891,E,2,09,0.9,19.8,M,11.3,M,17.8,0000*69

$GPGSA,A,3,03,05,08,13,07,06,19,23,28,,,,1.7,0.9,1.4*36

$GPRMC,061318.000,A,4332.0625,S,17235.0891,E,12.46,114.37,141110,,*23

$GPGGA,061319.000,4332.0639,S,17235.0942,E,1,09,0.9,19.6,M,11.3,M,18.8,0000*68

$GPGSA,A,3,03,05,08,13,07,06,19,23,28,,,,1.7,0.9,1.4*36

$GPRMC,061319.000,A,4332.0639,S,17235.0942,E,15.32,105.98,141110,,*21

$GPGGA,061320.000,4332.0651,S,17235.1000,E,1,09,0.9,19.4,M,11.3,M,18.8,0000*60

$GPGSA,A,3,03,05,08,13,07,06,19,23,28,,,,1.7,0.9,1.4*36

$GPRMC,061320.000,A,4332.0651,S,17235.1000,E,16.08,105.13,141110,,*22

$GPGGA,061321.000,4332.0662,S,17235.1062,E,1,09,0.9,19.3,M,11.3,M,18.8,0000*62

$GPGSA,A,3,03,05,08,13,07,06,19,23,28,,,,1.7,0.9,1.4*36

$GPGSV,3,1,12,07,74,206,43,19,57,074,37,13,47,350,35,08,41,234,39*71

$GPGSV,3,2,12,03,40,121,43,06,28,130,35,27,27,065,,28,21,289,25*7F

$GPGSV,3,3,12,23,19,009,34,10,09,275,23,05,07,234,23,11,06,023,*75

$GPRMC,061321.000,A,4332.0662,S,17235.1062,E,16.45,102.08,141110,,*23

$GPGGA,061322.000,4332.0671,S,17235.1124,E,1,09,0.9,19.2,M,11.3,M,18.8,0000*61

$GPGSA,A,3,03,05,08,13,07,06,19,23,28,,,,1.7,0.9,1.4*36

$GPRMC,061322.000,A,4332.0671,S,17235.1124,E,16.35,101.77,141110,,*2D

$GPGGA,061323.000,4332.0680,S,17235.1187,E,1,09,0.9,19.2,M,11.3,M,18.8,0000*67

$GPGSA,A,3,03,05,08,13,07,06,19,23,28,,,,1.7,0.9,1.4*36

$GPRMC,061323.000,A,4332.0680,S,17235.1187,E,16.22,100.21,141110,,*2F

$GPGGA,061324.000,4332.0687,S,17235.1248,E,1,08,1.0,19.2,M,11.3,M,18.8,0000*6E

$GPGSA,A,3,03,08,13,07,06,19,23,28,,,,,2.0,1.0,1.8*33

$GPRMC,061324.000,A,4332.0687,S,17235.1248,E,15.96,98.24,141110,,*16

$GPGGA,061325.000,4332.0693,S,17235.1309,E,1,08,1.0,19.2,M,11.3,M,18.8,0000*6E

$GPGSA,A,3,03,08,13,07,06,19,23,28,,,,,2.0,1.0,1.8*33

$GPRMC,061325.000,A,4332.0693,S,17235.1309,E,15.70,95.93,141110,,*1F

$GPGGA,061326.000,4332.0696,S,17235.1369,E,1,08,1.0,19.3,M,11.3,M,18.8,0000*6F

$GPGSA,A,3,03,08,13,07,06,19,23,28,,,,,2.0,1.0,1.8*33

$GPGSV,3,1,12,07,74,206,42,19,57,074,38,13,47,350,41,08,41,234,39*7C

$GPGSV,3,2,12,03,40,121,42,06,28,130,36,27,27,065,,28,21,289,28*70

$GPGSV,3,3,12,23,19,009,42,10,09,275,23,05,07,234,,11,06,023,*75

$GPRMC,061326.000,A,4332.0696,S,17235.1369,E,15.46,93.95,141110,,*1A

$GPGGA,061327.000,4332.0699,S,17235.1428,E,1,08,1.0,19.3,M,11.3,M,18.8,0000*63

$GPGSA,A,3,03,08,13,07,06,19,23,28,,,,,2.0,1.0,1.8*33

$GPRMC,061327.000,A,4332.0699,S,17235.1428,E,15.10,91.92,141110,,*10

$GPGGA,061328.000,4332.0699,S,17235.1486,E,1,09,0.9,19.4,M,11.3,M,18.8,0000*66

$GPGSA,A,3,03,05,08,13,07,06,19,23,28,,,,1.7,0.9,1.4*36

$GPRMC,061328.000,A,4332.0699,S,17235.1486,E,14.72,89.86,141110,,*12

$GPGGA,061329.000,4332.0698,S,17235.1542,E,1,09,0.9,19.5,M,11.3,M,18.8,0000*6E

$GPGSA,A,3,03,05,08,13,07,06,19,23,28,,,,1.7,0.9,1.4*36

$GPRMC,061329.000,A,4332.0698,S,17235.1542,E,14.24,88.53,141110,,*11

$GPGGA,061330.000,4332.0697,S,17235.1596,E,1,09,0.9,19.5,M,11.3,M,18.8,0000*60

$GPGSA,A,3,03,05,08,13,07,06,19,23,28,,,,1.7,0.9,1.4*36

$GPRMC,061330.000,A,4332.0697,S,17235.1596,E,13.75,86.64,141110,,*16

$GPGGA,061331.000,4332.0694,S,17235.1649,E,1,09,0.9,19.6,M,11.3,M,18.8,0000*60

$GPGSA,A,3,03,05,08,13,07,06,19,23,28,,,,1.7,0.9,1.4*36

$GPGSV,3,1,12,07,74,206,42,19,57,074,42,13,47,350,42,08,41,234,40*7C

$GPGSV,3,2,12,03,40,121,42,06,28,130,36,27,27,065,,28,21,289,33*7A

$GPGSV,3,3,12,23,19,009,43,10,09,275,23,05,07,234,34,11,06,023,*73

$GPRMC,061331.000,A,4332.0694,S,17235.1649,E,13.94,84.68,141110,,*14

$GPGGA,061332.000,4332.0690,S,17235.1704,E,1,09,0.9,19.7,M,11.3,M,18.8,0000*6E

$GPGSA,A,3,03,05,08,13,07,06,19,23,28,,,,1.7,0.9,1.4*36

$GPRMC,061332.000,A,4332.0690,S,17235.1704,E,14.59,83.96,141110,,*1B

$GPGGA,061333.000,4332.0685,S,17235.1759,E,1,09,0.9,19.8,M,11.3,M,18.8,0000*6C

$GPGSA,A,3,03,05,08,13,07,06,19,23,28,,,,1.7,0.9,1.4*36

$GPRMC,061333.000,A,4332.0685,S,17235.1759,E,14.39,82.34,141110,,*19

$GPGGA,061334.000,4332.0679,S,17235.1813,E,1,09,0.9,19.9,M,11.3,M,18.8,0000*68

$GPGSA,A,3,03,05,08,13,07,06,19,23,28,,,,1.7,0.9,1.4*36

$GPRMC,061334.000,A,4332.0679,S,17235.1813,E,14.21,81.57,141110,,*13

$GPGGA,061335.000,4332.0673,S,17235.1866,E,1,09,0.9,20.0,M,11.3,M,18.8,0000*62

$GPGSA,A,3,03,05,08,13,07,06,19,23,28,,,,1.7,0.9,1.4*36

$GPRMC,061335.000,A,4332.0673,S,17235.1866,E,13.85,81.93,141110,,*1B

$GPGGA,061336.000,4332.0668,S,17235.1916,E,1,09,0.9,20.1,M,11.3,M,18.8,0000*6C

$GPGSA,A,3,03,05,08,13,07,06,19,23,28,,,,1.7,0.9,1.4*36

$GPGSV,3,1,12,07,74,206,42,19,57,074,43,13,47,350,42,08,41,234,41*7C

$GPGSV,3,2,12,03,40,121,42,06,28,130,33,27,27,065,,28,21,289,31*7D

$GPGSV,3,3,12,23,19,009,44,10,09,275,28,05,07,234,28,11,06,023,*72

$GPRMC,061336.000,A,4332.0668,S,17235.1916,E,12.47,81.67,141110,,*10

$GPGGA,061337.000,4332.0664,S,17235.1957,E,1,09,0.9,20.2,M,11.3,M,18.8,0000*67

$GPGSA,A,3,03,05,08,13,07,06,19,23,28,,,,1.7,0.9,1.4*36

$GPRMC,061337.000,A,4332.0664,S,17235.1957,E,9.16,82.71,141110,,*22

$GPGGA,061338.000,4332.0661,S,17235.1983,E,1,09,0.9,20.4,M,11.3,M,18.8,0000*62

$GPGSA,A,3,03,05,08,13,07,06,19,23,28,,,,1.7,0.9,1.4*36

$GPRMC,061338.000,A,4332.0661,S,17235.1983,E,4.64,83.01,141110,,*2F

$GPGGA,061339.000,4332.0660,S,17235.1996,E,1,09,0.9,20.5,M,11.3,M,18.8,0000*67

$GPGSA,A,3,03,05,08,13,07,06,19,23,28,,,,1.7,0.9,1.4*36

$GPRMC,061339.000,A,4332.0660,S,17235.1996,E,2.78,82.99,141110,,*20

$GPGGA,061340.000,4332.0660,S,17235.2008,E,1,09,0.9,20.6,M,11.3,M,18.8,0000*67

$GPGSA,A,3,03,05,08,13,07,06,19,23,28,,,,1.7,0.9,1.4*36

$GPRMC,061340.000,A,4332.0660,S,17235.2008,E,3.63,90.18,141110,,*22

$GPGGA,061341.000,4332.0663,S,17235.2027,E,1,09,0.9,20.8,M,11.3,M,18.8,0000*66

$GPGSA,A,3,03,05,08,13,07,06,19,23,28,,,,1.7,0.9,1.4*36

$GPGSV,3,1,12,07,74,206,42,19,57,074,42,13,47,350,43,08,41,234,42*7F

$GPGSV,3,2,12,03,40,121,42,06,28,130,34,27,27,065,,28,21,289,35*7E

$GPGSV,3,3,12,23,19,009,43,10,09,275,25,05,07,234,24,11,06,023,*74

$GPRMC,061341.000,A,4332.0663,S,17235.2027,E,6.75,106.83,141110,,*13

$GPGGA,061342.000,4332.0675,S,17235.2053,E,1,09,0.9,20.8,M,11.3,M,18.8,0000*61

$GPGSA,A,3,03,05,08,13,07,06,19,23,28,,,,1.7,0.9,1.4*36

$GPRMC,061342.000,A,4332.0675,S,17235.2053,E,9.61,131.80,141110,,*19

$GPGGA,061343.000,4332.0699,S,17235.2075,E,1,09,0.9,20.9,M,11.3,M,18.8,0000*67

$GPGSA,A,3,03,05,08,13,07,06,19,23,28,,,,1.7,0.9,1.4*36

$GPRMC,061343.000,A,4332.0699,S,17235.2075,E,11.90,157.03,141110,,*22

$GPGGA,061344.000,4332.0735,S,17235.2087,E,1,09,0.9,21.1,M,11.3,M,18.8,0000*63

$GPGSA,A,3,03,05,08,13,07,06,19,23,28,,,,1.7,0.9,1.4*36

$GPRMC,061344.000,A,4332.0735,S,17235.2087,E,14.15,170.44,141110,,*21

$GPGGA,061345.000,4332.0778,S,17235.2095,E,1,08,1.0,21.2,M,11.3,M,18.8,0000*62

$GPGSA,A,3,03,08,13,07,06,19,23,28,,,,,2.0,1.0,1.8*33

$GPRMC,061345.000,A,4332.0778,S,17235.2095,E,16.03,172.87,141110,,*22

$GPGGA,061346.000,4332.0825,S,17235.2103,E,1,08,1.0,21.4,M,11.3,M,18.8,0000*6E

$GPGSA,A,3,03,08,13,07,06,19,23,28,,,,,2.0,1.0,1.8*33

$GPGSV,3,1,12,07,75,206,43,19,57,075,42,13,47,350,42,08,42,234,41*7F

$GPGSV,3,2,12,03,40,121,37,06,27,130,37,27,27,065,,28,21,289,36*73

$GPGSV,3,3,12,23,19,009,36,10,09,275,30,05,07,234,,11,06,024,*73

$GPRMC,061346.000,A,4332.0825,S,17235.2103,E,17.77,173.27,141110,,*21

$GPGGA,061347.000,4332.0877,S,17235.2111,E,1,08,1.0,21.6,M,11.3,M,18.8,0000*69

$GPGSA,A,3,03,08,13,07,06,19,23,28,,,,,2.0,1.0,1.8*33

$GPRMC,061347.000,A,4332.0877,S,17235.2111,E,19.20,173.58,141110,,*20

$GPGGA,061348.000,4332.0933,S,17235.2119,E,1,08,1.0,21.8,M,11.3,M,18.8,0000*61

$GPGSA,A,3,03,08,13,07,06,19,23,28,,,,,2.0,1.0,1.8*33

$GPRMC,061348.000,A,4332.0933,S,17235.2119,E,20.38,174.15,141110,,*2B

$GPGGA,061349.000,4332.0992,S,17235.2127,E,1,09,0.9,22.0,M,11.3,M,18.8,0000*64

$GPGSA,A,3,03,05,08,13,07,06,19,23,28,,,,1.7,0.9,1.4*36

$GPRMC,061349.000,A,4332.0992,S,17235.2127,E,21.32,173.79,141110,,*2A

$GPGGA,061350.000,4332.1053,S,17235.2135,E,1,09,0.9,22.0,M,11.3,M,18.8,0000*6A

$GPGSA,A,3,03,05,08,13,07,06,19,23,28,,,,1.7,0.9,1.4*36

$GPRMC,061350.000,A,4332.1053,S,17235.2135,E,22.05,173.86,141110,,*23

$GPGGA,061351.000,4332.1116,S,17235.2144,E,1,09,0.9,22.0,M,11.3,M,18.8,0000*6D

$GPGSA,A,3,03,05,08,13,07,06,19,23,28,,,,1.7,0.9,1.4*36

$GPGSV,3,1,12,07,75,206,43,19,57,075,43,13,47,350,42,08,42,234,41*7E

$GPGSV,3,2,12,03,40,121,37,06,27,130,36,27,27,065,,28,21,289,37*73

$GPGSV,3,3,12,23,19,009,36,10,09,275,25,05,07,234,35,11,06,024,*71

$GPRMC,061351.000,A,4332.1116,S,17235.2144,E,22.44,174.23,141110,,*29

$GPGGA,061352.000,4332.1179,S,17235.2153,E,1,09,0.9,22.1,M,11.3,M,18.8,0000*60

$GPGSA,A,3,03,05,08,13,07,06,19,23,28,,,,1.7,0.9,1.4*36

$GPRMC,061352.000,A,4332.1179,S,17235.2153,E,22.75,174.24,141110,,*20

$GPGGA,061353.000,4332.1243,S,17235.2161,E,1,09,0.9,22.3,M,11.3,M,18.8,0000*68

$GPGSA,A,3,03,05,08,13,07,06,19,23,28,,,,1.7,0.9,1.4*36

$GPRMC,061353.000,A,4332.1243,S,17235.2161,E,22.93,173.87,141110,,*2C

$GPGGA,061354.000,4332.1308,S,17235.2171,E,1,09,0.9,22.5,M,11.3,M,18.8,0000*66

$GPGSA,A,3,03,05,08,13,07,06,19,23,28,,,,1.7,0.9,1.4*36

$GPRMC,061354.000,A,4332.1308,S,17235.2171,E,23.20,173.13,141110,,*20

$GPGGA,061355.000,4332.1373,S,17235.2181,E,1,09,0.9,22.6,M,11.3,M,18.8,0000*67

$GPGSA,A,3,03,05,08,13,07,06,19,23,28,,,,1.7,0.9,1.4*36

$GPRMC,061355.000,A,4332.1373,S,17235.2181,E,23.45,172.98,141110,,*23

$GPGGA,061356.000,4332.1439,S,17235.2192,E,1,09,0.9,22.9,M,11.3,M,18.8,0000*60

$GPGSA,A,3,03,05,08,13,07,06,19,23,28,,,,1.7,0.9,1.4*36

$GPGSV,3,1,12,07,75,206,43,19,57,075,44,13,47,350,42,08,42,234,41*79

$GPGSV,3,2,12,03,40,121,37,06,27,130,34,27,27,065,,28,21,289,37*71

$GPGSV,3,3,12,23,19,009,36,10,09,275,26,05,07,234,25,11,06,024,*73

$GPRMC,061356.000,A,4332.1439,S,17235.2192,E,23.61,173.16,141110,,*2A

$GPGGA,061357.000,4332.1505,S,17235.2202,E,1,09,0.9,23.0,M,11.3,M,18.8,0000*6D

$GPGSA,A,3,03,05,08,13,07,06,19,23,28,,,,1.7,0.9,1.4*36

$GPRMC,061357.000,A,4332.1505,S,17235.2202,E,23.80,173.51,141110,,*23

$GPGGA,061358.000,4332.1572,S,17235.2212,E,1,09,0.9,23.2,M,11.3,M,18.8,0000*61

$GPGSA,A,3,03,05,08,13,07,06,19,23,28,,,,1.7,0.9,1.4*36

$GPRMC,061358.000,A,4332.1572,S,17235.2212,E,24.05,173.32,141110,,*22

$GPGGA,061359.000,4332.1639,S,17235.2223,E,1,09,0.9,23.5,M,11.3,M,18.8,0000*69

$GPGSA,A,3,03,05,08,13,07,06,19,23,28,,,,1.7,0.9,1.4*36

$GPRMC,061359.000,A,4332.1639,S,17235.2223,E,24.34,173.11,141110,,*2E

$GPGGA,061400.000,4332.1707,S,17235.2233,E,1,09,0.9,23.7,M,11.3,M,18.8,0000*6D

$GPGSA,A,3,03,05,08,13,07,06,19,23,28,,,,1.7,0.9,1.4*36

$GPRMC,061400.000,A,4332.1707,S,17235.2233,E,24.60,173.13,141110,,*2B

$GPGGA,061401.000,4332.1776,S,17235.2244,E,1,09,0.9,23.7,M,11.3,M,18.8,0000*6A

$GPGSA,A,3,03,05,08,13,07,06,19,23,28,,,,1.7,0.9,1.4*36

$GPGSV,3,1,12,07,75,206,44,19,57,075,44,13,47,350,42,08,42,234,40*7F

$GPGSV,3,2,12,03,40,121,36,06,27,130,35,27,27,065,,28,21,289,38*7E

$GPGSV,3,3,12,23,19,009,29,10,09,275,27,05,07,234,28,11,06,024,*71

$GPRMC,061401.000,A,4332.1776,S,17235.2244,E,24.84,173.18,141110,,*2D

$GPGGA,061402.000,4332.1846,S,17235.2255,E,1,09,0.9,23.9,M,11.3,M,18.8,0000*6B

$GPGSA,A,3,03,05,08,13,07,06,19,23,28,,,,1.7,0.9,1.4*36

$GPRMC,061402.000,A,4332.1846,S,17235.2255,E,25.12,173.42,141110,,*23

$GPGGA,061403.000,4332.1916,S,17235.2266,E,1,09,0.9,24.0,M,11.3,M,18.8,0000*60

$GPGSA,A,3,03,05,08,13,07,06,19,23,28,,,,1.7,0.9,1.4*36

$GPRMC,061403.000,A,4332.1916,S,17235.2266,E,25.32,173.61,141110,,*25

$GPGGA,061404.000,4332.1987,S,17235.2276,E,1,08,1.0,24.2,M,11.3,M,18.8,0000*65

$GPGSA,A,3,03,08,13,07,06,19,23,28,,,,,2.0,1.0,1.8*33

$GPRMC,061404.000,A,4332.1987,S,17235.2276,E,25.41,173.81,141110,,*21

$GPGGA,061405.000,4332.2058,S,17235.2286,E,1,09,0.9,24.3,M,11.3,M,18.8,0000*6B

$GPGSA,A,3,03,05,08,13,07,06,19,23,28,,,,1.7,0.9,1.4*36

$GPRMC,061405.000,A,4332.2058,S,17235.2286,E,25.18,173.81,141110,,*2B

$GPGGA,061406.000,4332.2127,S,17235.2296,E,1,09,0.9,24.4,M,11.3,M,18.8,0000*67

$GPGSA,A,3,03,05,08,13,07,06,19,23,28,,,,1.7,0.9,1.4*36

$GPGSV,3,1,12,07,75,206,44,19,57,075,44,13,47,350,42,08,42,234,40*7F

$GPGSV,3,2,12,03,40,121,36,06,27,130,35,27,27,065,,28,21,289,38*7E

$GPGSV,3,3,12,23,19,009,34,10,09,275,28,05,07,234,26,11,06,024,*7C

$GPRMC,061406.000,A,4332.2127,S,17235.2296,E,24.60,173.83,141110,,*2C

$GPGGA,061407.000,4332.2195,S,17235.2306,E,1,09,0.9,24.5,M,11.3,M,18.8,0000*66

$GPGSA,A,3,03,05,08,13,07,06,19,23,28,,,,1.7,0.9,1.4*36

$GPRMC,061407.000,A,4332.2195,S,17235.2306,E,23.99,173.67,141110,,*27

$GPGGA,061408.000,4332.2261,S,17235.2316,E,1,09,0.9,24.7,M,11.3,M,18.8,0000*62

$GPGSA,A,3,03,05,08,13,07,06,19,23,28,,,,1.7,0.9,1.4*36

$GPRMC,061408.000,A,4332.2261,S,17235.2316,E,23.55,173.58,141110,,*2D

$GPGGA,061409.000,4332.2326,S,17235.2326,E,1,09,0.9,24.7,M,11.3,M,18.8,0000*62

$GPGSA,A,3,03,05,08,13,07,06,19,23,28,,,,1.7,0.9,1.4*36

$GPRMC,061409.000,A,4332.2326,S,17235.2326,E,23.45,173.12,141110,,*22

$GPGGA,061410.000,4332.2391,S,17235.2337,E,1,09,0.9,24.8,M,11.3,M,18.8,0000*69

$GPGSA,A,3,03,05,08,13,07,06,19,23,28,,,,1.7,0.9,1.4*36

$GPRMC,061410.000,A,4332.2391,S,17235.2337,E,23.24,172.51,141110,,*27

$GPGGA,061411.000,4332.2456,S,17235.2347,E,1,09,0.9,25.2,M,11.3,M,18.8,0000*68

$GPGSA,A,3,03,05,08,13,07,06,19,23,28,,,,1.7,0.9,1.4*36

$GPGSV,3,1,12,07,75,206,44,19,57,075,44,13,47,350,42,08,42,234,40*7F

$GPGSV,3,2,12,03,40,121,34,06,27,130,31,27,27,065,,28,21,289,38*78

$GPGSV,3,3,12,23,19,009,34,10,09,275,30,05,07,234,27,11,06,024,*74

$GPRMC,061411.000,A,4332.2456,S,17235.2347,E,23.02,172.81,141110,,*24

$GPGGA,061412.000,4332.2519,S,17235.2358,E,1,09,0.9,25.3,M,11.3,M,18.8,0000*6E

$GPGSA,A,3,03,05,08,13,07,06,19,23,28,,,,1.7,0.9,1.4*36

$GPRMC,061412.000,A,4332.2519,S,17235.2358,E,22.71,173.17,141110,,*28

$GPGGA,061413.000,4332.2582,S,17235.2368,E,1,09,0.9,25.4,M,11.3,M,18.8,0000*69

$GPGSA,A,3,03,05,08,13,07,06,19,23,28,,,,1.7,0.9,1.4*36

$GPRMC,061413.000,A,4332.2582,S,17235.2368,E,22.43,173.34,141110,,*28

$GPGGA,061414.000,4332.2644,S,17235.2377,E,1,09,0.9,25.6,M,11.3,M,18.8,0000*6B

$GPGSA,A,3,03,05,08,13,07,06,19,23,28,,,,1.7,0.9,1.4*36

$GPRMC,061414.000,A,4332.2644,S,17235.2377,E,21.87,172.94,141110,,*28

$GPGGA,061415.000,4332.2704,S,17235.2388,E,1,09,0.9,25.8,M,11.3,M,18.8,0000*61

$GPGSA,A,3,03,05,08,13,07,06,19,23,28,,,,1.7,0.9,1.4*36

$GPRMC,061415.000,A,4332.2704,S,17235.2388,E,21.22,172.16,141110,,*29

$GPGGA,061416.000,4332.2761,S,17235.2398,E,1,09,0.9,26.0,M,11.3,M,18.8,0000*6B

$GPGSA,A,3,03,05,08,13,07,06,19,23,28,,,,1.7,0.9,1.4*36

$GPGSV,3,1,12,07,75,205,44,19,57,075,44,13,47,351,42,08,42,234,40*7D

$GPGSV,3,2,12,03,40,121,29,06,27,130,32,27,27,065,,28,21,289,38*77

$GPGSV,3,3,12,23,19,009,34,10,08,275,25,05,07,234,27,11,06,024,*71

$GPRMC,061416.000,A,4332.2761,S,17235.2398,E,20.04,171.99,141110,,*29

$GPGGA,061417.000,4332.2816,S,17235.2407,E,1,09,0.9,26.1,M,11.3,M,18.8,0000*65

$GPGSA,A,3,03,05,08,13,07,06,19,23,28,,,,1.7,0.9,1.4*36

$GPRMC,061417.000,A,4332.2816,S,17235.2407,E,19.22,174.09,141110,,*24

$GPGGA,061418.000,4332.2866,S,17235.2408,E,1,09,0.9,26.4,M,11.3,M,18.8,0000*67

$GPGSA,A,3,03,05,08,13,07,06,19,23,28,,,,1.7,0.9,1.4*36

$GPRMC,061418.000,A,4332.2866,S,17235.2408,E,17.30,182.09,141110,,*27

$GPGGA,061419.000,4332.2911,S,17235.2396,E,1,09,0.9,26.6,M,11.3,M,18.8,0000*65

$GPGSA,A,3,03,05,08,13,07,06,19,23,28,,,,1.7,0.9,1.4*36

$GPRMC,061419.000,A,4332.2911,S,17235.2396,E,15.93,197.76,141110,,*20

$GPGGA,061420.000,4332.2949,S,17235.2368,E,1,08,1.0,26.9,M,11.3,M,18.8,0000*65

$GPGSA,A,3,03,08,13,07,06,19,23,28,,,,,2.0,1.0,1.8*33

$GPRMC,061420.000,A,4332.2949,S,17235.2368,E,15.36,217.31,141110,,*21

$GPGGA,061421.000,4332.2977,S,17235.2324,E,1,08,1.0,27.1,M,11.3,M,18.8,0000*68

$GPGSA,A,3,03,08,13,07,06,19,23,28,,,,,2.0,1.0,1.8*33

$GPGSV,3,1,12,07,75,205,44,19,57,075,44,13,47,351,43,08,42,234,40*7C

$GPGSV,3,2,12,03,40,121,40,06,27,130,40,27,27,065,,28,21,289,39*7C

$GPGSV,3,3,12,23,19,009,35,10,08,275,34,05,07,234,,11,06,024,*75

$GPRMC,061421.000,A,4332.2977,S,17235.2324,E,14.99,235.58,141110,,*2E

$GPGGA,061422.000,4332.2994,S,17235.2271,E,1,08,1.0,27.3,M,11.3,M,18.8,0000*65

$GPGSA,A,3,03,08,13,07,06,19,23,28,,,,,2.0,1.0,1.8*33

$GPRMC,061422.000,A,4332.2994,S,17235.2271,E,14.91,252.78,141110,,*2A

$GPGGA,061423.000,4332.3002,S,17235.2214,E,1,08,1.0,27.4,M,11.3,M,18.8,0000*67

$GPGSA,A,3,03,08,13,07,06,19,23,28,,,,,2.0,1.0,1.8*33

$GPRMC,061423.000,A,4332.3002,S,17235.2214,E,15.16,264.07,141110,,*2C

$GPGGA,061424.000,4332.3005,S,17235.2155,E,1,08,1.0,27.5,M,11.3,M,18.8,0000*60

$GPGSA,A,3,03,08,13,07,06,19,23,28,,,,,2.0,1.0,1.8*33

$GPRMC,061424.000,A,4332.3005,S,17235.2155,E,14.89,264.96,141110,,*25

$GPGGA,061425.000,4332.3008,S,17235.2097,E,1,09,0.9,27.5,M,11.3,M,18.8,0000*6A

$GPGSA,A,3,03,05,08,13,07,06,19,23,28,,,,1.7,0.9,1.4*36

$GPRMC,061425.000,A,4332.3008,S,17235.2097,E,15.07,263.32,141110,,*28

$GPGGA,061426.000,4332.3012,S,17235.2037,E,1,09,0.9,27.6,M,11.3,M,18.8,0000*6B

$GPGSA,A,3,03,05,08,13,07,06,19,23,28,,,,1.7,0.9,1.4*36

$GPGSV,3,1,12,07,75,205,44,19,57,075,44,13,47,351,43,08,42,234,31*7A

$GPGSV,3,2,12,03,40,121,40,06,27,130,39,27,27,065,,28,21,289,38*73

$GPGSV,3,3,12,23,19,009,36,10,08,275,35,05,07,234,28,11,06,024,*7D

$GPRMC,061426.000,A,4332.3012,S,17235.2037,E,16.04,263.93,141110,,*21

$GPGGA,061427.000,4332.3016,S,17235.1972,E,1,09,0.9,27.7,M,11.3,M,18.8,0000*64

$GPGSA,A,3,03,05,08,13,07,06,19,23,28,,,,1.7,0.9,1.4*36

$GPRMC,061427.000,A,4332.3016,S,17235.1972,E,17.46,264.28,141110,,*2F

$GPGGA,061428.000,4332.3021,S,17235.1902,E,1,09,0.9,27.7,M,11.3,M,18.8,0000*68

$GPGSA,A,3,03,05,08,13,07,06,19,23,28,,,,1.7,0.9,1.4*36

$GPRMC,061428.000,A,4332.3021,S,17235.1902,E,18.60,264.48,141110,,*2E

$GPGGA,061429.000,4332.3025,S,17235.1828,E,1,09,0.9,27.7,M,11.3,M,18.8,0000*64

$GPGSA,A,3,03,05,08,13,07,06,19,23,28,,,,1.7,0.9,1.4*36

$GPRMC,061429.000,A,4332.3025,S,17235.1828,E,19.89,264.17,141110,,*2E

$GPGGA,061430.000,4332.3031,S,17235.1748,E,1,09,0.9,27.7,M,11.3,M,18.8,0000*60

$GPGSA,A,3,03,05,08,13,07,06,19,23,28,,,,1.7,0.9,1.4*36

$GPRMC,061430.000,A,4332.3031,S,17235.1748,E,21.60,263.75,141110,,*25

$GPGGA,061431.000,4332.3037,S,17235.1661,E,1,09,0.9,27.8,M,11.3,M,18.8,0000*62

$GPGSA,A,3,03,05,08,13,07,06,19,23,28,,,,1.7,0.9,1.4*36

$GPGSV,3,1,12,07,75,205,44,19,57,075,44,13,47,351,43,08,42,234,31*7A

$GPGSV,3,2,12,03,40,121,40,06,27,130,39,27,27,065,,28,21,289,37*7C

$GPGSV,3,3,12,23,19,009,35,10,08,275,35,05,07,234,28,11,06,024,*7E

$GPRMC,061431.000,A,4332.3037,S,17235.1661,E,23.20,264.06,141110,,*2D

$GPGGA,061432.000,4332.3044,S,17235.1569,E,1,09,0.9,27.8,M,11.3,M,18.8,0000*6E

$GPGSA,A,3,03,05,08,13,07,06,19,23,28,,,,1.7,0.9,1.4*36

$GPRMC,061432.000,A,4332.3044,S,17235.1569,E,24.48,264.36,141110,,*2B

$GPGGA,061433.000,4332.3050,S,17235.1472,E,1,09,0.9,27.8,M,11.3,M,18.8,0000*61

$GPGSA,A,3,03,05,08,13,07,06,19,23,28,,,,1.7,0.9,1.4*36

$GPRMC,061433.000,A,4332.3050,S,17235.1472,E,25.77,264.26,141110,,*28

$GPGGA,061434.000,4332.3057,S,17235.1371,E,1,09,0.9,27.8,M,11.3,M,18.8,0000*65

$GPGSA,A,3,03,05,08,13,07,06,19,23,28,,,,1.7,0.9,1.4*36

$GPRMC,061434.000,A,4332.3057,S,17235.1371,E,26.69,264.10,141110,,*25

$GPGGA,061435.000,4332.3064,S,17235.1267,E,1,09,0.9,27.8,M,11.3,M,18.8,0000*62

$GPGSA,A,3,03,05,08,13,07,06,19,23,28,,,,1.7,0.9,1.4*36

$GPRMC,061435.000,A,4332.3064,S,17235.1267,E,27.49,264.40,141110,,*24

$GPGGA,061436.000,4332.3071,S,17235.1160,E,1,09,0.9,27.9,M,11.3,M,18.8,0000*60

$GPGSA,A,3,03,05,08,13,07,06,19,23,28,,,,1.7,0.9,1.4*36

$GPGSV,3,1,12,07,75,205,44,19,57,075,44,13,47,351,43,08,42,234,31*7A

$GPGSV,3,2,12,03,40,121,40,06,27,130,39,27,27,065,,28,21,289,37*7C

$GPGSV,3,3,12,23,19,009,35,10,08,275,35,05,07,234,31,11,06,024,*76

$GPRMC,061436.000,A,4332.3071,S,17235.1160,E,28.03,264.61,141110,,*25

$GPGGA,061437.000,4332.3079,S,17235.1051,E,1,09,0.9,27.9,M,11.3,M,18.8,0000*6A

$GPGSA,A,3,03,05,08,13,07,06,19,23,28,,,,1.7,0.9,1.4*36

$GPRMC,061437.000,A,4332.3079,S,17235.1051,E,28.26,264.37,141110,,*2B

$GPGGA,061438.000,4332.3086,S,17235.0942,E,1,08,1.0,28.0,M,11.3,M,18.8,0000*60

$GPGSA,A,3,03,08,13,07,06,19,23,28,,,,,2.0,1.0,1.8*33

$GPRMC,061438.000,A,4332.3086,S,17235.0942,E,28.66,264.46,141110,,*2C

$GPGGA,061439.000,4332.3094,S,17235.0831,E,1,08,1.0,28.0,M,11.3,M,18.8,0000*67

$GPGSA,A,3,03,08,13,07,06,19,23,28,,,,,2.0,1.0,1.8*33

$GPRMC,061439.000,A,4332.3094,S,17235.0831,E,29.00,264.51,141110,,*2C

$GPGGA,061440.000,4332.3101,S,17235.0719,E,1,08,1.0,28.0,M,11.3,M,18.8,0000*61

$GPGSA,A,3,03,08,13,07,06,19,23,28,,,,,2.0,1.0,1.8*33

$GPRMC,061440.000,A,4332.3101,S,17235.0719,E,29.05,264.45,141110,,*2A

$GPGGA,061441.000,4332.3109,S,17235.0608,E,1,08,1.0,28.1,M,11.3,M,18.8,0000*68

$GPGSA,A,3,03,08,13,07,06,19,23,28,,,,,2.0,1.0,1.8*33

$GPGSV,3,1,12,07,75,205,44,19,57,075,44,13,47,351,43,08,42,234,30*7B

$GPGSV,3,2,12,03,40,121,41,06,27,130,38,27,27,065,,28,21,289,36*7D

$GPGSV,3,3,12,23,19,009,35,10,08,275,36,05,07,234,,11,06,024,*77

$GPRMC,061441.000,A,4332.3109,S,17235.0608,E,28.82,264.41,141110,,*28

$GPGGA,061442.000,4332.3117,S,17235.0498,E,1,08,1.0,28.1,M,11.3,M,18.8,0000*6F

$GPGSA,A,3,03,08,13,07,06,19,23,28,,,,,2.0,1.0,1.8*33

$GPRMC,061442.000,A,4332.3117,S,17235.0498,E,28.53,264.13,141110,,*24

$GPGGA,061443.000,4332.3125,S,17235.0388,E,1,08,1.0,28.1,M,11.3,M,18.8,0000*69

$GPGSA,A,3,03,08,13,07,06,19,23,28,,,,,2.0,1.0,1.8*33

$GPRMC,061443.000,A,4332.3125,S,17235.0388,E,28.48,264.25,141110,,*2D

$GPGGA,061444.000,4332.3132,S,17235.0278,E,1,08,1.0,28.1,M,11.3,M,18.8,0000*66

$GPGSA,A,3,03,08,13,07,06,19,23,28,,,,,2.0,1.0,1.8*33

$GPRMC,061444.000,A,4332.3132,S,17235.0278,E,28.54,264.91,141110,,*20

$GPGGA,061445.000,4332.3139,S,17235.0169,E,1,08,1.0,28.2,M,11.3,M,18.8,0000*6C

$GPGSA,A,3,03,08,13,07,06,19,23,28,,,,,2.0,1.0,1.8*33

$GPRMC,061445.000,A,4332.3139,S,17235.0169,E,28.43,264.96,141110,,*28

$GPGGA,061446.000,4332.3147,S,17235.0060,E,1,08,1.0,28.2,M,11.3,M,18.8,0000*6E

$GPGSA,A,3,03,08,13,07,06,19,23,28,,,,,2.0,1.0,1.8*33

$GPGSV,3,1,12,07,75,205,44,19,57,075,43,13,47,351,44,08,42,234,30*7B

$GPGSV,3,2,12,03,40,121,41,06,27,130,35,27,27,065,,28,21,289,36*70

$GPGSV,3,3,12,23,19,009,36,10,08,275,36,05,07,234,,11,06,024,*74

$GPRMC,061446.000,A,4332.3147,S,17235.0060,E,28.39,264.06,141110,,*2E

$GPGGA,061447.000,4332.3155,S,17234.9950,E,1,09,0.9,28.1,M,11.3,M,18.8,0000*64

$GPGSA,A,3,03,05,08,13,07,06,19,23,28,,,,1.7,0.9,1.4*36

$GPRMC,061447.000,A,4332.3155,S,17234.9950,E,28.42,263.99,141110,,*23

$GPGGA,061448.000,4332.3163,S,17234.9842,E,1,09,0.9,28.1,M,11.3,M,18.8,0000*6C

$GPGSA,A,3,03,05,08,13,07,06,19,23,28,,,,1.7,0.9,1.4*36

$GPRMC,061448.000,A,4332.3163,S,17234.9842,E,28.18,264.18,141110,,*2A

$GPGGA,061449.000,4332.3172,S,17234.9734,E,1,09,0.9,28.2,M,11.3,M,18.8,0000*60

$GPGSA,A,3,03,05,08,13,07,06,19,23,28,,,,1.7,0.9,1.4*36

$GPRMC,061449.000,A,4332.3172,S,17234.9734,E,27.87,263.85,141110,,*2F

$GPGGA,061450.000,4332.3180,S,17234.9628,E,1,08,1.0,28.2,M,11.3,M,18.8,0000*60

$GPGSA,A,3,03,08,13,07,06,19,23,28,,,,,2.0,1.0,1.8*33

$GPRMC,061450.000,A,4332.3180,S,17234.9628,E,27.65,263.99,141110,,*27

$GPGGA,061451.000,4332.3188,S,17234.9522,E,1,09,0.9,28.0,M,11.3,M,110.8,0000*52

$GPGSA,A,3,03,10,08,13,07,06,19,23,28,,,,1.8,0.9,1.5*3C

$GPGSV,3,1,12,07,75,205,44,19,57,075,43,13,47,351,44,08,42,234,30*7B

$GPGSV,3,2,12,03,40,121,41,06,27,130,37,27,27,065,,28,21,289,35*71

$GPGSV,3,3,12,23,19,009,33,10,08,275,36,05,07,234,,11,06,024,*71

$GPRMC,061451.000,A,4332.3188,S,17234.9522,E,27.43,264.39,141110,,*2E

$GPGGA,061452.000,4332.3195,S,17234.9416,E,1,09,0.9,27.9,M,11.3,M,110.8,0000*5D

$GPGSA,A,3,03,10,08,13,07,06,19,23,28,,,,1.8,0.9,1.5*3C

$GPRMC,061452.000,A,4332.3195,S,17234.9416,E,27.47,264.80,141110,,*21

$GPGGA,061453.000,4332.3202,S,17234.9310,E,1,09,0.9,27.8,M,11.3,M,110.8,0000*51

$GPGSA,A,3,03,10,08,13,07,06,19,23,28,,,,1.8,0.9,1.5*3C

$GPRMC,061453.000,A,4332.3202,S,17234.9310,E,27.68,264.62,141110,,*2D

$GPGGA,061454.000,4332.3210,S,17234.9203,E,1,09,0.9,27.8,M,11.3,M,110.8,0000*56

$GPGSA,A,3,03,10,08,13,07,06,19,23,28,,,,1.8,0.9,1.5*3C

$GPRMC,061454.000,A,4332.3210,S,17234.9203,E,27.78,264.26,141110,,*2B

$GPGGA,061455.000,4332.3218,S,17234.9096,E,1,09,0.9,27.7,M,11.3,M,110.8,0000*5E

$GPGSA,A,3,03,10,08,13,07,06,19,23,28,,,,1.8,0.9,1.5*3C

$GPRMC,061455.000,A,4332.3218,S,17234.9096,E,27.90,264.42,141110,,*28

$GPGGA,061456.000,4332.3226,S,17234.8989,E,1,09,0.9,27.7,M,11.3,M,110.8,0000*56

$GPGSA,A,3,03,10,08,13,07,06,19,23,28,,,,1.8,0.9,1.5*3C

$GPGSV,3,1,12,07,75,205,44,19,57,075,43,13,46,351,44,08,42,233,30*7D

$GPGSV,3,2,12,03,40,122,41,06,27,130,38,27,27,064,,28,21,288,35*7D

$GPGSV,3,3,12,23,18,009,31,10,08,275,36,05,07,235,,11,07,024,*72

$GPRMC,061456.000,A,4332.3226,S,17234.8989,E,28.13,264.59,141110,,*2E

$GPGGA,061457.000,4332.3233,S,17234.8880,E,1,09,0.9,27.7,M,11.3,M,110.8,0000*5B

$GPGSA,A,3,03,10,08,13,07,06,19,23,28,,,,1.8,0.9,1.5*3C

$GPRMC,061457.000,A,4332.3233,S,17234.8880,E,28.47,264.35,141110,,*28

$GPGGA,061458.000,4332.3242,S,17234.8770,E,1,09,0.9,27.6,M,11.3,M,110.8,0000*53

$GPGSA,A,3,03,10,08,13,07,06,19,23,28,,,,1.8,0.9,1.5*3C

$GPRMC,061458.000,A,4332.3242,S,17234.8770,E,29.21,264.03,141110,,*25

$GPGGA,061459.000,4332.3250,S,17234.8656,E,1,09,0.9,27.5,M,11.3,M,110.8,0000*57

$GPGSA,A,3,03,10,08,13,07,06,19,23,28,,,,1.8,0.9,1.5*3C

$GPRMC,061459.000,A,4332.3250,S,17234.8656,E,29.86,264.32,141110,,*2D

$GPGGA,061500.000,4332.3259,S,17234.8541,E,1,10,0.9,27.5,M,11.3,M,110.8,0000*5E

$GPGSA,A,3,03,05,10,08,13,07,06,19,23,28,,,1.6,0.9,1.4*36

$GPRMC,061500.000,A,4332.3259,S,17234.8541,E,30.14,264.17,141110,,*28

$GPGGA,061501.000,4332.3268,S,17234.8425,E,1,10,0.9,27.3,M,11.3,M,110.8,0000*58

$GPGSA,A,3,03,05,10,08,13,07,06,19,23,28,,,1.6,0.9,1.4*36

$GPGSV,3,1,12,07,75,205,44,19,57,075,43,13,46,351,44,08,42,233,30*7D

$GPGSV,3,2,12,03,40,122,41,06,27,130,38,27,27,064,,28,21,288,34*7C

$GPGSV,3,3,12,23,18,009,33,10,08,275,36,05,07,235,28,11,07,024,*7A

$GPRMC,061501.000,A,4332.3268,S,17234.8425,E,30.39,264.00,141110,,*21

$GPGGA,061502.000,4332.3277,S,17234.8309,E,1,10,0.9,27.2,M,11.3,M,110.8,0000*5D

$GPGSA,A,3,03,05,10,08,13,07,06,19,23,28,,,1.6,0.9,1.4*36

$GPRMC,061502.000,A,4332.3277,S,17234.8309,E,30.44,264.10,141110,,*2E

$GPGGA,061503.000,4332.3285,S,17234.8192,E,1,10,0.9,27.1,M,11.3,M,110.8,0000*52

$GPGSA,A,3,03,05,10,08,13,07,06,19,23,28,,,1.6,0.9,1.4*36

$GPRMC,061503.000,A,4332.3285,S,17234.8192,E,30.63,264.18,141110,,*2F

$GPGGA,061504.000,4332.3294,S,17234.8074,E,1,10,0.9,27.0,M,11.3,M,110.8,0000*5D

$GPGSA,A,3,03,05,10,08,13,07,06,19,23,28,,,1.6,0.9,1.4*36

$GPRMC,061504.000,A,4332.3294,S,17234.8074,E,30.84,264.55,141110,,*21

$GPGGA,061505.000,4332.3302,S,17234.7956,E,1,10,0.9,26.9,M,11.3,M,110.8,0000*5C

$GPGSA,A,3,03,05,10,08,13,07,06,19,23,28,,,1.6,0.9,1.4*36

$GPRMC,061505.000,A,4332.3302,S,17234.7956,E,30.77,264.73,141110,,*20

$GPGGA,061506.000,4332.3310,S,17234.7837,E,1,10,0.9,26.8,M,11.3,M,110.8,0000*5B

$GPGSA,A,3,03,05,10,08,13,07,06,19,23,28,,,1.6,0.9,1.4*36

$GPGSV,3,1,12,07,75,205,44,19,57,075,43,13,46,351,45,08,42,233,30*7C

$GPGSV,3,2,12,03,40,122,40,06,27,130,34,27,27,064,,28,21,288,34*71

$GPGSV,3,3,12,23,18,009,32,10,08,275,35,05,07,235,26,11,07,024,*76

$GPRMC,061506.000,A,4332.3310,S,17234.7837,E,31.00,264.74,141110,,*20

$GPGGA,061507.000,4332.3319,S,17234.7718,E,1,09,0.9,26.8,M,11.3,M,110.8,0000*59

$GPGSA,A,3,03,10,08,13,07,06,19,23,28,,,,1.8,0.9,1.5*3C

$GPRMC,061507.000,A,4332.3319,S,17234.7718,E,31.40,264.49,141110,,*20

$GPGGA,061508.000,4332.3327,S,17234.7598,E,1,09,0.9,26.7,M,11.3,M,110.8,0000*5E

$GPGSA,A,3,03,10,08,13,07,06,19,23,28,,,,1.8,0.9,1.5*3C

$GPRMC,061508.000,A,4332.3327,S,17234.7598,E,31.58,264.27,141110,,*29

$GPGGA,061509.000,4332.3336,S,17234.7477,E,1,09,0.9,26.7,M,11.3,M,110.8,0000*5F

$GPGSA,A,3,03,10,08,13,07,06,19,23,28,,,,1.8,0.9,1.5*3C

$GPRMC,061509.000,A,4332.3336,S,17234.7477,E,31.62,264.48,141110,,*28

$GPGGA,061510.000,4332.3345,S,17234.7356,E,1,10,0.9,26.6,M,11.3,M,110.8,0000*5E

$GPGSA,A,3,03,05,10,08,13,07,06,19,23,28,,,1.6,0.9,1.4*36

$GPRMC,061510.000,A,4332.3345,S,17234.7356,E,31.60,264.53,141110,,*28

$GPGGA,061511.000,4332.3354,S,17234.7235,E,1,10,0.9,26.4,M,11.3,M,110.8,0000*59

$GPGSA,A,3,03,05,10,08,13,07,06,19,23,28,,,1.6,0.9,1.4*36

$GPGSV,3,1,12,07,75,205,44,19,57,075,43,13,46,351,44,08,42,233,30*7D

$GPGSV,3,2,12,03,40,122,41,06,27,130,38,27,27,064,,28,21,288,34*7C

$GPGSV,3,3,12,23,18,009,32,10,08,275,35,05,07,235,34,11,07,024,*75

$GPRMC,061511.000,A,4332.3354,S,17234.7235,E,31.64,264.16,141110,,*28

$GPGGA,061512.000,4332.3363,S,17234.7113,E,1,10,0.9,26.2,M,11.3,M,110.8,0000*5F

$GPGSA,A,3,03,05,10,08,13,07,06,19,23,28,,,1.6,0.9,1.4*36

$GPRMC,061512.000,A,4332.3363,S,17234.7113,E,31.72,264.05,141110,,*2D

$GPGGA,061513.000,4332.3372,S,17234.6992,E,1,10,0.9,26.2,M,11.3,M,110.8,0000*5E

$GPGSA,A,3,03,05,10,08,13,07,06,19,23,28,,,1.6,0.9,1.4*36

$GPRMC,061513.000,A,4332.3372,S,17234.6992,E,31.73,264.15,141110,,*2C

$GPGGA,061514.000,4332.3381,S,17234.6871,E,1,10,0.9,26.2,M,11.3,M,110.8,0000*59

$GPGSA,A,3,03,05,10,08,13,07,06,19,23,28,,,1.6,0.9,1.4*36

$GPRMC,061514.000,A,4332.3381,S,17234.6871,E,31.73,264.30,141110,,*2C

$GPGGA,061515.000,4332.3390,S,17234.6750,E,1,09,0.9,26.2,M,11.3,M,110.8,0000*5C

$GPGSA,A,3,03,10,08,13,07,06,19,23,28,,,,1.8,0.9,1.5*3C

$GPRMC,061515.000,A,4332.3390,S,17234.6750,E,31.78,264.16,141110,,*2E

$GPGGA,061516.000,4332.3399,S,17234.6628,E,1,09,0.9,26.2,M,11.3,M,110.8,0000*58

$GPGSA,A,3,03,10,08,13,07,06,19,23,28,,,,1.8,0.9,1.5*3C

$GPGSV,3,1,12,07,75,205,44,19,57,075,43,13,46,351,44,08,42,233,29*75

$GPGSV,3,2,12,03,40,122,41,06,27,130,38,27,27,064,,28,21,288,34*7C

$GPGSV,3,3,12,23,18,009,32,10,08,275,34,05,07,235,,11,07,024,*73

$GPRMC,061516.000,A,4332.3399,S,17234.6628,E,31.85,264.04,141110,,*2B

$GPGGA,061517.000,4332.3409,S,17234.6506,E,1,09,0.9,26.1,M,11.3,M,110.8,0000*5B

$GPGSA,A,3,03,10,08,13,07,06,19,23,28,,,,1.8,0.9,1.5*3C

$GPRMC,061517.000,A,4332.3409,S,17234.6506,E,31.98,264.10,141110,,*22

$GPGGA,061518.000,4332.3418,S,17234.6384,E,1,09,0.9,26.1,M,11.3,M,110.8,0000*58

$GPGSA,A,3,03,10,08,13,07,06,19,23,28,,,,1.8,0.9,1.5*3C

$GPRMC,061518.000,A,4332.3418,S,17234.6384,E,32.08,264.21,141110,,*29

$GPGGA,061519.000,4332.3427,S,17234.6261,E,1,09,0.9,26.1,M,11.3,M,110.8,0000*5F

$GPGSA,A,3,03,10,08,13,07,06,19,23,28,,,,1.8,0.9,1.5*3C

$GPRMC,061519.000,A,4332.3427,S,17234.6261,E,32.03,264.47,141110,,*25

$GPGGA,061520.000,4332.3435,S,17234.6139,E,1,10,0.9,26.1,M,11.3,M,110.8,0000*50

$GPGSA,A,3,03,10,08,13,07,06,19,23,05,28,,,1.6,0.9,1.4*36

$GPRMC,061520.000,A,4332.3435,S,17234.6139,E,31.98,264.80,141110,,*28

$GPGGA,061521.000,4332.3443,S,17234.6017,E,1,10,0.9,26.2,M,11.3,M,110.8,0000*5E

$GPGSA,A,3,03,10,08,13,07,06,19,23,05,28,,,1.6,0.9,1.4*36

$GPGSV,3,1,12,07,75,205,45,19,57,075,43,13,46,351,44,08,42,233,29*74

$GPGSV,3,2,12,03,40,122,41,06,27,130,38,27,27,064,,28,21,288,35*7D

$GPGSV,3,3,12,23,18,009,33,10,08,275,34,05,07,235,33,11,07,024,*72

$GPRMC,061521.000,A,4332.3443,S,17234.6017,E,32.00,264.65,141110,,*2C

$GPGGA,061522.000,4332.3452,S,17234.5894,E,1,10,0.9,26.2,M,11.3,M,110.8,0000*5D

$GPGSA,A,3,03,10,08,13,07,06,19,23,05,28,,,1.6,0.9,1.4*36

$GPRMC,061522.000,A,4332.3452,S,17234.5894,E,31.83,264.97,141110,,*2A

$GPGGA,061523.000,4332.3460,S,17234.5772,E,1,10,0.9,26.2,M,11.3,M,110.8,0000*5A

$GPGSA,A,3,03,10,08,13,07,06,19,23,05,28,,,1.6,0.9,1.4*36

$GPRMC,061523.000,A,4332.3460,S,17234.5772,E,31.90,264.67,141110,,*20

$GPGGA,061524.000,4332.3469,S,17234.5650,E,1,10,0.9,26.0,M,11.3,M,110.8,0000*57

$GPGSA,A,3,03,10,08,13,07,06,19,23,05,28,,,1.6,0.9,1.4*36

$GPRMC,061524.000,A,4332.3469,S,17234.5650,E,32.15,264.02,141110,,*22

$GPGGA,061525.000,4332.3478,S,17234.5527,E,1,10,0.9,26.0,M,11.3,M,110.8,0000*55

$GPGSA,A,3,03,10,08,13,07,06,19,23,05,28,,,1.6,0.9,1.4*36

$GPRMC,061525.000,A,4332.3478,S,17234.5527,E,32.19,264.36,141110,,*2B

$GPGGA,061526.000,4332.3487,S,17234.5404,E,1,09,0.9,26.0,M,11.3,M,110.8,0000*5E

$GPGSA,A,3,03,10,08,13,07,06,19,23,28,,,,1.8,0.9,1.5*3C

$GPGSV,3,1,12,07,75,205,45,19,57,075,43,13,46,351,44,08,42,233,29*74

$GPGSV,3,2,12,03,40,122,41,06,27,130,38,27,27,064,,28,21,288,35*7D

$GPGSV,3,3,12,23,18,009,33,10,08,275,31,05,07,235,24,11,07,024,*71

$GPRMC,061526.000,A,4332.3487,S,17234.5404,E,32.14,264.63,141110,,*25

$GPGGA,061527.000,4332.3496,S,17234.5281,E,1,09,0.9,26.0,M,11.3,M,110.8,0000*54

$GPGSA,A,3,03,10,08,13,07,06,19,23,28,,,,1.8,0.9,1.5*3C

$GPRMC,061527.000,A,4332.3496,S,17234.5281,E,32.08,264.47,141110,,*24

$GPGGA,061528.000,4332.3504,S,17234.5159,E,1,09,0.9,26.0,M,11.3,M,110.8,0000*57

$GPGSA,A,3,03,10,08,13,07,06,19,23,28,,,,1.8,0.9,1.5*3C

$GPRMC,061528.000,A,4332.3504,S,17234.5159,E,31.95,264.37,141110,,*27

$GPGGA,061529.000,4332.3513,S,17234.5037,E,1,09,0.9,26.1,M,11.3,M,110.8,0000*58

$GPGSA,A,3,03,10,08,13,07,06,19,23,28,,,,1.8,0.9,1.5*3C

$GPRMC,061529.000,A,4332.3513,S,17234.5037,E,31.80,264.31,141110,,*2B

$GPGGA,061530.000,4332.3522,S,17234.4916,E,1,09,0.9,26.0,M,11.3,M,110.8,0000*58

$GPGSA,A,3,03,10,08,13,07,06,19,23,28,,,,1.8,0.9,1.5*3C

$GPRMC,061530.000,A,4332.3522,S,17234.4916,E,31.62,264.45,141110,,*25

$GPGGA,061531.000,4332.3531,S,17234.4795,E,1,09,0.9,25.9,M,11.3,M,110.8,0000*54

$GPGSA,A,3,03,10,08,13,07,06,19,23,28,,,,1.8,0.9,1.5*3C

$GPGSV,3,1,12,07,75,205,45,19,57,075,43,13,46,351,43,08,42,233,30*7B

$GPGSV,3,2,12,03,40,122,40,06,27,130,37,27,27,064,,28,21,288,35*73

$GPGSV,3,3,12,23,18,009,33,10,08,275,32,05,07,235,,11,07,024,*74

$GPRMC,061531.000,A,4332.3531,S,17234.4795,E,31.55,264.12,141110,,*25

$GPGGA,061532.000,4332.3541,S,17234.4675,E,1,09,0.9,25.8,M,11.3,M,110.8,0000*5E

$GPGSA,A,3,03,10,08,13,07,06,19,23,28,,,,1.8,0.9,1.5*3C

$GPRMC,061532.000,A,4332.3541,S,17234.4675,E,31.50,263.84,141110,,*23

$GPGGA,061533.000,4332.3550,S,17234.4554,E,1,09,0.9,25.8,M,11.3,M,110.8,0000*5F

$GPGSA,A,3,03,10,08,13,07,06,19,23,28,,,,1.8,0.9,1.5*3C

$GPRMC,061533.000,A,4332.3550,S,17234.4554,E,31.51,264.11,141110,,*28

$GPGGA,061534.000,4332.3559,S,17234.4434,E,1,09,0.9,25.7,M,11.3,M,110.8,0000*59

$GPGSA,A,3,03,10,08,13,07,06,19,23,28,,,,1.8,0.9,1.5*3C

$GPRMC,061534.000,A,4332.3559,S,17234.4434,E,31.41,264.75,141110,,*22

$GPGGA,061535.000,4332.3567,S,17234.4314,E,1,09,0.9,25.7,M,11.3,M,110.8,0000*50

$GPGSA,A,3,03,10,08,13,07,06,19,23,28,,,,1.8,0.9,1.5*3C

$GPRMC,061535.000,A,4332.3567,S,17234.4314,E,31.51,264.58,141110,,*25

$GPGGA,061536.000,4332.3575,S,17234.4193,E,1,09,0.9,25.7,M,11.3,M,110.8,0000*5D

$GPGSA,A,3,03,10,08,13,07,06,19,23,28,,,,1.8,0.9,1.5*3C

$GPGSV,3,1,12,07,75,205,44,19,57,075,43,13,46,351,43,08,42,233,30*7A

$GPGSV,3,2,12,03,40,122,40,06,27,130,37,27,27,064,,28,21,288,35*73

$GPGSV,3,3,12,23,18,009,33,10,08,275,33,05,07,235,,11,07,024,*75

$GPRMC,061536.000,A,4332.3575,S,17234.4193,E,31.57,264.40,141110,,*27

$GPGGA,061537.000,4332.3584,S,17234.4073,E,1,09,0.9,25.7,M,11.3,M,110.8,0000*5D

$GPGSA,A,3,03,10,08,13,07,06,19,23,28,,,,1.8,0.9,1.5*3C

$GPRMC,061537.000,A,4332.3584,S,17234.4073,E,31.53,264.34,141110,,*20

$GPGGA,061538.000,4332.3593,S,17234.3953,E,1,09,0.9,25.6,M,11.3,M,110.8,0000*59

$GPGSA,A,3,03,10,08,13,07,06,19,23,28,,,,1.8,0.9,1.5*3C

$GPRMC,061538.000,A,4332.3593,S,17234.3953,E,31.49,264.01,141110,,*28

$GPGGA,061539.000,4332.3603,S,17234.3832,E,1,09,0.9,25.5,M,11.3,M,110.8,0000*57

$GPGSA,A,3,03,10,08,13,07,06,19,23,28,,,,1.8,0.9,1.5*3C

$GPRMC,061539.000,A,4332.3603,S,17234.3832,E,31.53,263.64,141110,,*2A

$GPGGA,061540.000,4332.3612,S,17234.3712,E,1,10,0.9,25.5,M,11.3,M,110.8,0000*5C

$GPGSA,A,3,03,05,10,08,13,07,06,19,23,28,,,1.6,0.9,1.3*31

$GPRMC,061540.000,A,4332.3612,S,17234.3712,E,31.79,264.19,141110,,*2C

$GPGGA,061541.000,4332.3621,S,17234.3590,E,1,11,0.8,25.5,M,11.3,M,160.8,0000*52

$GPGSA,A,3,03,05,10,08,13,07,06,19,23,11,28,,1.4,0.8,1.2*33

$GPGSV,3,1,12,07,75,204,44,19,57,076,43,13,46,351,43,08,42,233,31*79

$GPGSV,3,2,12,03,40,122,40,06,27,130,34,27,26,064,,28,22,288,35*72

$GPGSV,3,3,12,23,18,009,34,10,08,276,34,11,07,024,34,05,07,235,30*72

$GPRMC,061541.000,A,4332.3621,S,17234.3590,E,31.78,264.69,141110,,*23

$GPGGA,061542.000,4332.3630,S,17234.3468,E,1,11,0.8,25.5,M,11.3,M,160.8,0000*57

$GPGSA,A,3,03,05,10,08,13,07,06,19,23,11,28,,1.4,0.8,1.2*33

$GPRMC,061542.000,A,4332.3630,S,17234.3468,E,32.13,264.41,141110,,*22

$GPGGA,061543.000,4332.3638,S,17234.3345,E,1,11,0.8,25.5,M,11.3,M,160.8,0000*56

$GPGSA,A,3,03,05,10,08,13,07,06,19,23,11,28,,1.4,0.8,1.2*33

$GPRMC,061543.000,A,4332.3638,S,17234.3345,E,32.21,264.63,141110,,*22

$GPGGA,061544.000,4332.3646,S,17234.3222,E,1,11,0.8,25.6,M,11.3,M,160.8,0000*5B

$GPGSA,A,3,03,05,10,08,13,07,06,19,23,11,28,,1.4,0.8,1.2*33

$GPRMC,061544.000,A,4332.3646,S,17234.3222,E,32.33,265.74,141110,,*28

$GPGGA,061545.000,4332.3651,S,17234.3098,E,1,11,0.8,25.6,M,11.3,M,160.8,0000*5F

$GPGSA,A,3,03,05,10,08,13,07,06,19,23,11,28,,1.4,0.8,1.2*33

$GPRMC,061545.000,A,4332.3651,S,17234.3098,E,32.17,266.80,141110,,*22

$GPGGA,061546.000,4332.3656,S,17234.2975,E,1,11,0.8,25.6,M,11.3,M,160.8,0000*50

$GPGSA,A,3,03,05,10,08,13,07,06,19,23,11,28,,1.4,0.8,1.2*33

$GPGSV,3,1,12,07,75,204,43,19,57,076,43,13,46,351,43,08,42,233,35*7A

$GPGSV,3,2,12,03,40,122,39,06,27,130,35,27,26,064,,28,22,288,39*71

$GPGSV,3,3,12,23,18,009,34,10,08,276,35,11,07,024,30,05,07,235,30*77

$GPRMC,061546.000,A,4332.3656,S,17234.2975,E,31.73,267.21,141110,,*26

$GPGGA,061547.000,4332.3660,S,17234.2854,E,1,11,0.8,25.6,M,11.3,M,160.8,0000*56

$GPGSA,A,3,03,05,10,08,13,07,06,19,23,11,28,,1.4,0.8,1.2*33

$GPRMC,061547.000,A,4332.3660,S,17234.2854,E,31.47,268.07,141110,,*2C

$GPGGA,061548.000,4332.3663,S,17234.2733,E,1,11,0.8,25.6,M,11.3,M,160.8,0000*54

$GPGSA,A,3,03,05,10,08,13,07,06,19,23,11,28,,1.4,0.8,1.2*33

$GPRMC,061548.000,A,4332.3663,S,17234.2733,E,31.37,269.04,141110,,*2B

$GPGGA,061549.000,4332.3664,S,17234.2613,E,1,10,0.9,25.5,M,11.3,M,160.8,0000*52

$GPGSA,A,3,03,10,08,13,07,06,19,23,11,28,,,1.6,0.9,1.3*34

$GPRMC,061549.000,A,4332.3664,S,17234.2613,E,31.10,269.38,141110,,*24

$GPGGA,061550.000,4332.3665,S,17234.2494,E,1,10,0.9,25.5,M,11.3,M,160.8,0000*56

$GPGSA,A,3,03,10,08,13,07,06,19,23,11,28,,,1.6,0.9,1.3*34

$GPRMC,061550.000,A,4332.3665,S,17234.2494,E,30.82,269.46,141110,,*23

$GPGGA,061551.000,4332.3664,S,17234.2376,E,1,10,0.9,25.5,M,11.3,M,160.8,0000*5D

$GPGSA,A,3,03,10,08,13,07,06,19,23,11,28,,,1.6,0.9,1.3*34

$GPGSV,3,1,12,07,75,204,43,19,57,076,43,13,46,351,42,08,42,233,36*78

$GPGSV,3,2,12,03,40,122,40,06,27,130,39,27,26,064,,28,22,288,40*7D

$GPGSV,3,3,12,23,18,009,41,10,08,276,36,11,07,024,26,05,07,235,*72

$GPRMC,061551.000,A,4332.3664,S,17234.2376,E,30.85,271.52,141110,,*23

$GPGGA,061552.000,4332.3662,S,17234.2258,E,1,10,0.9,25.6,M,11.3,M,160.8,0000*56

$GPGSA,A,3,03,10,08,13,07,06,19,23,11,28,,,1.6,0.9,1.3*34

$GPRMC,061552.000,A,4332.3662,S,17234.2258,E,30.67,271.73,141110,,*24

$GPGGA,061553.000,4332.3660,S,17234.2141,E,1,10,0.9,25.6,M,11.3,M,160.8,0000*5E

$GPGSA,A,3,03,10,08,13,07,06,19,23,11,28,,,1.6,0.9,1.3*34

$GPRMC,061553.000,A,4332.3660,S,17234.2141,E,30.26,271.09,141110,,*24

$GPGGA,061554.000,4332.3659,S,17234.2026,E,1,10,0.9,25.6,M,11.3,M,160.8,0000*53

$GPGSA,A,3,03,10,08,13,07,06,19,23,11,28,,,1.6,0.9,1.3*34

$GPRMC,061554.000,A,4332.3659,S,17234.2026,E,29.67,270.36,141110,,*29

$GPGGA,061555.000,4332.3659,S,17234.1913,E,1,10,0.9,25.6,M,11.3,M,160.8,0000*5E

$GPGSA,A,3,03,10,08,13,07,06,19,23,11,28,,,1.6,0.9,1.3*34

$GPRMC,061555.000,A,4332.3659,S,17234.1913,E,29.12,269.74,141110,,*28

$GPGGA,061556.000,4332.3659,S,17234.1803,E,1,10,0.9,25.6,M,11.3,M,160.8,0000*5D

$GPGSA,A,3,03,10,08,13,07,06,19,23,11,28,,,1.6,0.9,1.3*34

$GPGSV,3,1,12,07,75,204,43,19,57,076,43,13,46,351,41,08,42,233,36*7B

$GPGSV,3,2,12,03,40,122,40,06,27,130,38,27,26,064,,28,22,288,40*7C

$GPGSV,3,3,12,23,18,009,41,10,08,276,36,11,07,024,19,05,07,235,*7E

$GPRMC,061556.000,A,4332.3659,S,17234.1803,E,28.42,269.60,141110,,*2A

$GPGGA,061557.000,4332.3659,S,17234.1696,E,1,10,0.9,25.7,M,11.3,M,160.8,0000*5F

$GPGSA,A,3,03,10,08,13,07,06,19,23,11,28,,,1.6,0.9,1.3*34

$GPRMC,061557.000,A,4332.3659,S,17234.1696,E,27.72,270.16,141110,,*2C

$GPGGA,061558.000,4332.3658,S,17234.1593,E,1,10,0.9,25.7,M,11.3,M,160.8,0000*57

$GPGSA,A,3,03,10,08,13,07,06,19,23,11,28,,,1.6,0.9,1.3*34

$GPRMC,061558.000,A,4332.3658,S,17234.1593,E,25.99,271.30,141110,,*26

$GPGGA,061559.000,4332.3656,S,17234.1500,E,1,10,0.9,25.8,M,11.3,M,160.8,0000*5D

$GPGSA,A,3,03,10,08,13,07,06,19,23,11,28,,,1.6,0.9,1.3*34

$GPRMC,061559.000,A,4332.3656,S,17234.1500,E,23.09,271.91,141110,,*27

$GPGGA,061600.000,4332.3655,S,17234.1419,E,1,10,0.9,25.8,M,11.3,M,160.8,0000*58

$GPGSA,A,3,03,10,08,13,07,06,19,23,11,28,,,1.6,0.9,1.3*34

$GPRMC,061600.000,A,4332.3655,S,17234.1419,E,19.68,271.29,141110,,*2F

$GPGGA,061601.000,4332.3654,S,17234.1351,E,1,10,0.9,25.9,M,11.3,M,160.8,0000*52

$GPGSA,A,3,03,10,08,13,07,06,19,23,11,28,,,1.6,0.9,1.3*34

$GPGSV,3,1,12,07,75,204,43,19,57,076,43,13,46,351,41,08,42,233,37*7A

$GPGSV,3,2,12,03,40,122,40,06,27,130,38,27,26,064,,28,22,288,40*7C

$GPGSV,3,3,12,23,18,009,41,10,08,276,37,11,07,024,26,05,07,235,*73

$GPRMC,061601.000,A,4332.3654,S,17234.1351,E,16.29,270.58,141110,,*29

$GPGGA,061602.000,4332.3654,S,17234.1298,E,1,10,0.9,25.9,M,11.3,M,160.8,0000*55

$GPGSA,A,3,03,10,08,13,07,06,19,23,11,28,,,1.6,0.9,1.3*34

$GPRMC,061602.000,A,4332.3654,S,17234.1298,E,12.11,270.21,141110,,*2F

$GPGGA,061603.000,4332.3654,S,17234.1261,E,1,10,0.9,25.9,M,11.3,M,160.8,0000*52

$GPGSA,A,3,03,10,08,13,07,06,19,23,11,28,,,1.6,0.9,1.3*34

$GPRMC,061603.000,A,4332.3654,S,17234.1261,E,7.89,270.06,141110,,*18

$GPGGA,061604.000,4332.3654,S,17234.1240,E,1,10,0.9,25.9,M,11.3,M,160.8,0000*56

$GPGSA,A,3,03,10,08,13,07,06,19,23,11,28,,,1.6,0.9,1.3*34

$GPRMC,061604.000,A,4332.3654,S,17234.1240,E,3.84,270.33,141110,,*13

$GPGGA,061605.000,4332.3654,S,17234.1232,E,1,10,0.9,25.9,M,11.3,M,160.8,0000*52

$GPGSA,A,3,03,10,08,13,07,06,19,23,11,28,,,1.6,0.9,1.3*34

$GPRMC,061605.000,A,4332.3654,S,17234.1232,E,0.98,270.09,141110,,*10

$GPGGA,061606.000,4332.3655,S,17234.1231,E,1,10,0.9,26.0,M,11.3,M,160.8,0000*59

$GPGSA,A,3,03,10,08,13,07,06,19,23,11,28,,,1.6,0.9,1.3*34

$GPGSV,3,1,12,07,75,204,42,19,57,076,43,13,46,351,41,08,42,233,30*7C

$GPGSV,3,2,12,03,40,122,40,06,27,130,38,27,26,064,,28,22,288,40*7C

$GPGSV,3,3,12,23,18,009,40,10,08,276,36,11,07,024,23,05,07,235,*76

$GPRMC,061606.000,A,4332.3655,S,17234.1231,E,0.04,330.19,141110,,*10

$GPGGA,061607.000,4332.3655,S,17234.1232,E,1,10,0.9,26.0,M,11.3,M,160.8,0000*5B

$GPGSA,A,3,03,10,08,13,07,06,19,23,11,28,,,1.6,0.9,1.3*34

$GPRMC,061607.000,A,4332.3655,S,17234.1232,E,0.05,321.85,141110,,*16

$GPGGA,061608.000,4332.3655,S,17234.1233,E,1,10,0.9,26.0,M,11.3,M,160.8,0000*55

$GPGSA,A,3,03,10,08,13,07,06,19,23,11,28,,,1.6,0.9,1.3*34

$GPRMC,061608.000,A,4332.3655,S,17234.1233,E,0.09,70.19,141110,,*26

$GPGGA,061609.000,4332.3655,S,17234.1234,E,1,10,0.9,26.0,M,11.3,M,160.8,0000*53

$GPGSA,A,3,03,10,08,13,07,06,19,23,11,28,,,1.6,0.9,1.3*34

$GPRMC,061609.000,A,4332.3655,S,17234.1234,E,0.12,56.33,141110,,*26

$GPGGA,061610.000,4332.3656,S,17234.1236,E,1,10,0.9,25.9,M,11.3,M,160.8,0000*50

$GPGSA,A,3,03,10,08,13,07,06,19,23,11,28,,,1.6,0.9,1.3*34

$GPRMC,061610.000,A,4332.3656,S,17234.1236,E,0.14,62.44,141110,,*2E

$GPGGA,061611.000,4332.3656,S,17234.1237,E,1,10,0.9,26.0,M,11.3,M,160.8,0000*5A

$GPGSA,A,3,03,10,08,13,07,06,19,23,11,28,,,1.6,0.9,1.3*34

$GPGSV,3,1,12,07,76,203,42,19,57,077,43,13,46,351,42,08,43,233,30*7B

$GPGSV,3,2,12,03,40,122,41,06,26,130,38,27,26,064,,28,22,288,41*7D

$GPGSV,3,3,12,23,18,009,40,10,08,276,36,11,07,024,21,05,07,235,*74

$GPRMC,061611.000,A,4332.3656,S,17234.1237,E,0.11,68.59,141110,,*2D

$GPGGA,061612.000,4332.3656,S,17234.1238,E,1,10,0.9,26.0,M,11.3,M,160.8,0000*56

$GPGSA,A,3,03,10,08,13,07,06,19,23,11,28,,,1.6,0.9,1.3*34

$GPRMC,061612.000,A,4332.3656,S,17234.1238,E,0.09,73.42,141110,,*28

$GPGGA,061613.000,4332.3656,S,17234.1239,E,1,10,0.9,26.0,M,11.3,M,160.8,0000*56

$GPGSA,A,3,03,10,08,13,07,06,19,23,11,28,,,1.6,0.9,1.3*34

$GPRMC,061613.000,A,4332.3656,S,17234.1239,E,0.10,71.87,141110,,*2B

$GPGGA,061614.000,4332.3656,S,17234.1240,E,1,10,0.9,26.0,M,11.3,M,160.8,0000*5F

$GPGSA,A,3,03,10,08,13,07,06,19,23,11,28,,,1.6,0.9,1.3*34

$GPRMC,061614.000,A,4332.3656,S,17234.1240,E,0.10,67.32,141110,,*2B

$GPGGA,061615.000,4332.3656,S,17234.1241,E,1,10,0.9,26.0,M,11.3,M,160.8,0000*5F

$GPGSA,A,3,03,10,08,13,07,06,19,23,11,28,,,1.6,0.9,1.3*34

$GPRMC,061615.000,A,4332.3656,S,17234.1241,E,0.11,61.14,141110,,*28

$GPGGA,061616.000,4332.3656,S,17234.1242,E,1,10,0.9,25.9,M,11.3,M,160.8,0000*55

$GPGSA,A,3,03,10,08,13,07,06,19,23,11,28,,,1.6,0.9,1.3*34

$GPGSV,3,1,12,07,76,203,43,19,57,077,42,13,46,351,42,08,43,233,31*7A

$GPGSV,3,2,12,03,40,122,41,06,26,130,38,27,26,064,,28,22,288,41*7D

$GPGSV,3,3,12,23,18,009,40,10,08,276,34,11,07,024,16,05,07,235,35*74

$GPRMC,061616.000,A,4332.3656,S,17234.1242,E,0.12,63.48,141110,,*20

$GPGGA,061617.000,4332.3657,S,17234.1244,E,1,10,0.9,25.9,M,11.3,M,160.8,0000*53

$GPGSA,A,3,03,10,08,13,07,06,19,23,11,28,,,1.6,0.9,1.3*34

$GPRMC,061617.000,A,4332.3657,S,17234.1244,E,0.13,59.41,141110,,*27

$GPGGA,061618.000,4332.3657,S,17234.1245,E,1,10,0.9,25.9,M,11.3,M,160.8,0000*5D

$GPGSA,A,3,03,10,08,13,07,06,19,23,11,28,,,1.6,0.9,1.3*34

$GPRMC,061618.000,A,4332.3657,S,17234.1245,E,0.13,67.75,141110,,*23

$GPGGA,061619.000,4332.3657,S,17234.1246,E,1,10,0.9,25.9,M,11.3,M,160.8,0000*5F

$GPGSA,A,3,03,10,08,13,07,06,19,23,11,28,,,1.6,0.9,1.3*34

$GPRMC,061619.000,A,4332.3657,S,17234.1246,E,0.12,62.18,141110,,*2E

$GPGGA,061620.000,4332.3657,S,17234.1247,E,1,10,0.9,25.8,M,11.3,M,160.8,0000*55

$GPGSA,A,3,03,10,08,13,07,06,19,23,11,28,,,1.6,0.9,1.3*34

$GPRMC,061620.000,A,4332.3657,S,17234.1247,E,0.12,63.85,141110,,*20

$GPGGA,061621.000,4332.3657,S,17234.1248,E,1,10,0.9,25.8,M,11.3,M,160.8,0000*5B

$GPGSA,A,3,03,10,08,13,07,06,19,23,11,28,,,1.6,0.9,1.3*34

$GPGSV,3,1,12,07,76,203,43,19,57,077,42,13,46,351,42,08,43,233,32*79

$GPGSV,3,2,12,03,40,122,41,06,26,130,38,27,26,064,,28,22,288,41*7D

$GPGSV,3,3,12,23,18,009,41,10,08,276,33,11,07,024,17,05,07,235,28*7F

$GPRMC,061621.000,A,4332.3657,S,17234.1248,E,0.11,69.94,141110,,*27

$GPGGA,061622.000,4332.3657,S,17234.1248,E,2,10,0.9,25.9,M,11.3,M,0.8,0000*5D

$GPGSA,A,3,03,10,08,13,07,06,19,23,11,28,,,1.6,0.9,1.3*34

$GPRMC,061622.000,A,4332.3657,S,17234.1248,E,0.09,65.25,141110,,*2B

$GPGGA,061623.000,4332.3657,S,17234.1249,E,2,10,0.9,25.8,M,11.3,M,1.8,0000*5D

$GPGSA,A,3,03,10,08,13,07,06,19,23,11,28,,,1.6,0.9,1.3*34

$GPRMC,061623.000,A,4332.3657,S,17234.1249,E,0.12,64.23,141110,,*26

$GPGGA,061624.000,4332.3657,S,17234.1250,E,2,10,0.9,25.9,M,11.3,M,2.8,0000*50

$GPGSA,A,3,03,10,08,13,07,06,19,23,11,28,,,1.6,0.9,1.3*34

$GPRMC,061624.000,A,4332.3657,S,17234.1250,E,0.10,63.82,141110,,*27

$GPGGA,061625.000,4332.3657,S,17234.1251,E,2,10,0.9,25.9,M,11.3,M,0.8,0000*52

$GPGSA,A,3,03,10,08,13,07,06,19,23,11,28,,,1.6,0.9,1.3*34

$GPRMC,061625.000,A,4332.3657,S,17234.1251,E,0.11,61.92,141110,,*25

$GPGGA,061626.000,4332.3657,S,17234.1252,E,2,10,0.9,25.9,M,11.3,M,0.8,0000*52

$GPGSA,A,3,03,10,08,13,07,06,19,23,11,28,,,1.6,0.9,1.3*34

$GPGSV,3,1,12,07,76,203,42,19,57,077,42,13,46,351,42,08,43,233,32*78

$GPGSV,3,2,12,03,40,122,41,06,26,130,38,27,26,064,,28,22,288,41*7D

$GPGSV,3,3,12,23,18,009,41,10,08,276,34,11,07,024,26,05,07,235,*70

$GPRMC,061626.000,A,4332.3657,S,17234.1252,E,0.10,65.37,141110,,*2F

$GPGGA,061627.000,4332.3657,S,17234.1252,E,2,10,0.9,25.9,M,11.3,M,0.8,0000*53

$GPGSA,A,3,03,10,08,13,07,06,19,23,11,28,,,1.6,0.9,1.3*34

$GPRMC,061627.000,A,4332.3657,S,17234.1252,E,0.06,44.91,141110,,*26

$GPGGA,061628.000,4332.3657,S,17234.1252,E,2,10,0.9,25.9,M,11.3,M,0.8,0000*5C

$GPGSA,A,3,03,10,08,13,07,06,19,23,11,28,,,1.6,0.9,1.3*34

