
$GPGGA,033501.000,4332.0623,S,17235.0776,E,1,06,1.7,23.7,M,11.3,M,,0000*75
$GPGSA,A,3,20,31,30,32,13,16,,,,,,,3.7,1.7,3.3*37
$GPRMC,033501.000,A,4332.0623,S,17235.0776,E,1.24,163.83,311010,,*15
$GPGGA,033502.000,4332.0628,S,17235.0778,E,1,07,1.2,24.9,M,11.3,M,,0000*7E
$GPGSA,A,3,20,31,30,32,13,16,23,,,,,,2.6,1.2,2.3*32
$GPRMC,033502.000,A,4332.0628,S,17235.0778,E,0.98,139.21,311010,,*12
$GPGGA,033503.000,4332.0631,S,17235.0781,E,1,07,1.2,25.9,M,11.3,M,,0000*70
$GPGSA,A,3,20,31,30,32,13,16,23,,,,,,2.6,1.2,2.3*32
$GPRMC,033503.000,A,4332.0631,S,17235.0781,E,0.89,161.30,311010,,*10
$GPGGA,033504.000,4332.0642,S,17235.0777,E,1,07,1.2,28.0,M,11.3,M,,0000*7E
$GPGSA,A,3,20,31,30,32,13,16,23,,,,,,2.6,1.2,2.3*32
$GPGSV,3,1,11,16,63,038,27,23,54,230,18,20,49,307,34,32,42,346,29*7E
$GPGSV,3,2,11,31,37,120,18,13,22,236,18,30,11,139,16,29,09,134,16*74
$GPGSV,3,3,11,06,06,035,24,03,04,023,,04,02,224,*4D
$GPRMC,033504.000,A,4332.0642,S,17235.0777,E,0.81,186.85,311010,,*15
$GPGGA,033505.000,4332.0646,S,17235.0777,E,1,04,2.8,28.8,M,11.3,M,,0000*79
$GPGSA,A,3,20,31,32,16,,,,,,,,,6.0,2.8,5.3*3E
$GPRMC,033505.000,A,4332.0646,S,17235.0777,E,0.04,164.01,311010,,*1D
$GPGGA,033506.000,4332.0654,S,17235.0776,E,1,06,1.5,31.5,M,11.3,M,,0000*71
$GPGSA,A,3,20,31,30,32,16,23,,,,,,,3.0,1.5,2.6*35
$GPRMC,033506.000,A,4332.0654,S,17235.0776,E,0.31,52.83,311010,,*24
$GPGGA,033507.000,4332.0657,S,17235.0776,E,1,07,1.2,32.5,M,11.3,M,,0000*76
$GPGSA,A,3,20,31,30,32,13,16,23,,,,,,2.6,1.2,2.3*32
$GPRMC,033507.000,A,4332.0657,S,17235.0776,E,0.63,33.46,311010,,*2F
$GPGGA,033508.000,4332.0659,S,17235.0776,E,1,07,1.2,33.3,M,11.3,M,,0000*70
$GPGSA,A,3,20,31,30,32,13,16,23,,,,,,2.6,1.2,2.3*32
$GPRMC,033508.000,A,4332.0659,S,17235.0776,E,0.57,17.36,311010,,*28
$GPGGA,033509.000,4332.0660,S,17235.0774,E,1,07,1.2,33.2,M,11.3,M,,0000*78
$GPGSA,A,3,20,31,30,32,13,16,23,,,,,,2.6,1.2,2.3*32
$GPGSV,3,1,11,16,63,038,26,23,54,230,17,20,49,307,35,32,42,346,30*79
$GPGSV,3,2,11,31,37,120,19,13,22,236,18,30,11,139,17,29,09,134,19*7B
$GPGSV,3,3,11,06,06,035,20,03,04,023,,04,02,224,*49
$GPRMC,033509.000,A,4332.0660,S,17235.0774,E,0.20,279.34,311010,,*19
$GPGGA,033510.000,4332.0653,S,17235.0773,E,1,06,1.5,32.1,M,11.3,M,,0000*73
$GPGSA,A,3,20,31,30,32,16,23,,,,,,,3.0,1.5,2.6*35
$GPRMC,033510.000,A,4332.0653,S,17235.0773,E,0.29,250.71,311010,,*15
$GPGGA,033511.000,4332.0651,S,17235.0773,E,1,06,1.5,33.2,M,11.3,M,,0000*72
$GPGSA,A,3,20,31,30,32,16,23,,,,,,,3.0,1.5,2.6*35
$GPRMC,033511.000,A,4332.0651,S,17235.0773,E,0.56,201.96,311010,,*13
$GPGGA,033512.000,4332.0654,S,17235.0775,E,1,04,2.8,33.4,M,11.3,M,,0000*78
$GPGSA,A,3,20,31,32,16,,,,,,,,,6.0,2.8,5.3*3E
$GPRMC,033512.000,A,4332.0654,S,17235.0775,E,0.88,173.02,311010,,*1B
$GPGGA,033513.000,4332.0658,S,17235.0777,E,1,04,2.8,33.4,M,11.3,M,,0000*77
$GPGSA,A,3,20,31,32,16,,,,,,,,,6.0,2.8,5.3*3E
$GPRMC,033513.000,A,4332.0658,S,17235.0777,E,1.10,182.05,311010,,*1D
$GPGGA,033514.000,4332.0655,S,17235.0783,E,1,06,1.5,31.2,M,11.3,M,,0000*7E
$GPGSA,A,3,20,31,30,32,16,23,,,,,,,3.0,1.5,2.6*35
$GPGSV,3,1,11,16,63,038,25,23,54,230,16,20,49,307,35,32,42,346,30*7B
$GPGSV,3,2,11,31,37,120,23,13,22,236,18,30,11,139,16,29,09,134,19*73
$GPGSV,3,3,11,06,06,035,17,03,04,023,,04,02,224,*4D
$GPRMC,033514.000,A,4332.0655,S,17235.0783,E,0.95,184.70,311010,,*14
$GPGGA,033515.000,4332.0655,S,17235.0783,E,1,06,1.5,29.6,M,11.3,M,,0000*72
$GPGSA,A,3,20,31,30,32,16,23,,,,,,,3.0,1.5,2.6*35
$GPRMC,033515.000,A,4332.0655,S,17235.0783,E,1.23,199.40,311010,,*16
$GPGGA,033516.000,4332.0656,S,17235.0783,E,1,06,1.5,27.9,M,11.3,M,,0000*73
$GPGSA,A,3,20,31,30,32,16,23,,,,,,,3.0,1.5,2.6*35
$GPRMC,033516.000,A,4332.0656,S,17235.0783,E,1.34,204.77,311010,,*13
$GPGGA,033517.000,4332.0662,S,17235.0780,E,1,07,1.2,28.3,M,11.3,M,,0000*75
$GPGSA,A,3,20,31,30,32,13,16,23,,,,,,2.6,1.2,2.3*32
$GPRMC,033517.000,A,4332.0662,S,17235.0780,E,1.29,183.38,311010,,*1D
$GPGGA,033518.000,4332.0668,S,17235.0776,E,1,07,1.2,27.6,M,11.3,M,,0000*73
$GPGSA,A,3,20,31,30,32,13,16,23,,,,,,2.6,1.2,2.3*32
$GPRMC,033518.000,A,4332.0668,S,17235.0776,E,0.95,194.56,311010,,*19
$GPGGA,033519.000,4332.0670,S,17235.0773,E,1,07,1.2,25.3,M,11.3,M,,0000*79
$GPGSA,A,3,20,31,30,32,13,16,23,,,,,,2.6,1.2,2.3*32
$GPGSV,3,1,11,16,63,038,27,23,54,230,19,20,49,307,36,32,42,346,31*74
$GPGSV,3,2,11,31,37,120,23,13,22,236,21,30,11,139,17,29,09,134,18*79
$GPGSV,3,3,11,06,06,035,,03,04,023,33,04,02,224,*4B
$GPRMC,033519.000,A,4332.0670,S,17235.0773,E,0.20,241.62,311010,,*16
$GPGGA,033520.000,4332.0671,S,17235.0775,E,1,07,1.2,24.8,M,11.3,M,,0000*7E
$GPGSA,A,3,20,31,30,32,13,16,23,,,,,,2.6,1.2,2.3*32
$GPRMC,033520.000,A,4332.0671,S,17235.0775,E,0.15,230.90,311010,,*16
$GPGGA,033521.000,4332.0667,S,17235.0777,E,1,07,1.2,22.4,M,11.3,M,,0000*70
$GPGSA,A,3,20,31,30,32,13,16,23,,,,,,2.6,1.2,2.3*32
$GPRMC,033521.000,A,4332.0667,S,17235.0777,E,0.70,33.10,311010,,*28
$GPGGA,033522.000,4332.0667,S,17235.0784,E,1,07,1.2,20.5,M,11.3,M,,0000*7C
$GPGSA,A,3,20,31,30,32,13,16,23,,,,,,2.6,1.2,2.3*32
$GPRMC,033522.000,A,4332.0667,S,17235.0784,E,0.72,52.74,311010,,*20
$GPGGA,033523.000,4332.0666,S,17235.0789,E,1,07,1.2,19.7,M,11.3,M,,0000*79
$GPGSA,A,3,20,31,30,32,13,16,23,,,,,,2.6,1.2,2.3*32
$GPRMC,033523.000,A,4332.0666,S,17235.0789,E,0.47,58.51,311010,,*26
$GPGGA,033524.000,4332.0663,S,17235.0792,E,1,07,1.2,19.0,M,11.3,M,,0000*76
$GPGSA,A,3,20,31,30,32,13,16,23,,,,,,2.6,1.2,2.3*32
$GPGSV,3,1,11,16,63,038,26,23,54,230,22,20,49,307,36,32,42,346,31*7D
$GPGSV,3,2,11,31,37,120,24,13,22,236,23,30,11,139,18,29,09,134,20*78
$GPGSV,3,3,11,06,06,035,,03,04,023,33,04,02,224,*4B
$GPRMC,033524.000,A,4332.0663,S,17235.0792,E,0.61,64.82,311010,,*2B
$GPGGA,033525.000,4332.0663,S,17235.0795,E,1,07,1.2,18.9,M,11.3,M,,0000*78
$GPGSA,A,3,20,31,30,32,13,16,23,,,,,,2.6,1.2,2.3*32
$GPRMC,033525.000,A,4332.0663,S,17235.0795,E,0.86,74.87,311010,,*20
$GPGGA,033526.000,4332.0664,S,17235.0791,E,1,07,1.2,18.1,M,11.3,M,,0000*70
$GPGSA,A,3,20,31,30,32,13,16,23,,,,,,2.6,1.2,2.3*32
$GPRMC,033526.000,A,4332.0664,S,17235.0791,E,0.20,250.47,311010,,*14
$GPGGA,033527.000,4332.0663,S,17235.0793,E,1,07,1.2,17.4,M,11.3,M,,0000*7E
$GPGSA,A,3,20,31,30,32,13,16,23,,,,,,2.6,1.2,2.3*32
$GPRMC,033527.000,A,4332.0663,S,17235.0793,E,0.48,33.65,311010,,*29
$GPGGA,033528.000,4332.0662,S,17235.0797,E,1,07,1.2,16.3,M,11.3,M,,0000*72
$GPGSA,A,3,20,31,30,32,13,16,23,,,,,,2.6,1.2,2.3*32
$GPRMC,033528.000,A,4332.0662,S,17235.0797,E,0.70,55.32,311010,,*2A
$GPGGA,033529.000,4332.0663,S,17235.0798,E,1,07,1.2,14.4,M,11.3,M,,0000*78
$GPGSA,A,3,20,31,30,32,13,16,23,,,,,,2.6,1.2,2.3*32
$GPGSV,3,1,11,16,63,038,26,23,54,230,21,20,49,307,36,32,42,346,30*7F
$GPGSV,3,2,11,31,37,120,28,13,22,236,23,30,11,139,17,29,09,134,20*7B
$GPGSV,3,3,11,06,06,035,,03,04,023,34,04,02,224,*4C
$GPRMC,033529.000,A,4332.0663,S,17235.0798,E,0.50,49.89,311010,,*2A
$GPGGA,033530.000,4332.0667,S,17235.0800,E,1,07,1.2,12.5,M,11.3,M,,0000*7D
$GPGSA,A,3,20,31,30,32,13,16,23,,,,,,2.6,1.2,2.3*32
$GPRMC,033530.000,A,4332.0667,S,17235.0800,E,0.53,29.06,311010,,*2A
$GPGGA,033531.000,4332.0667,S,17235.0798,E,1,07,1.2,11.0,M,11.3,M,,0000*74
$GPGSA,A,3,20,31,30,32,13,16,23,,,,,,2.6,1.2,2.2*33
$GPRMC,033531.000,A,4332.0667,S,17235.0798,E,0.52,11.90,311010,,*20
$GPGGA,033532.000,4332.0664,S,17235.0796,E,1,07,1.2,10.1,M,11.3,M,,0000*7A
$GPGSA,A,3,20,31,30,32,13,16,23,,,,,,2.6,1.2,2.2*33
$GPRMC,033532.000,A,4332.0664,S,17235.0796,E,0.90,358.27,311010,,*12
$GPGGA,033533.000,4332.0664,S,17235.0792,E,1,07,1.2,9.6,M,11.3,M,,0000*40
$GPGSA,A,3,20,31,30,32,13,16,23,,,,,,2.6,1.2,2.2*33
$GPRMC,033533.000,A,4332.0664,S,17235.0792,E,0.75,52.36,311010,,*25
$GPGGA,033534.000,4332.0665,S,17235.0788,E,1,07,1.2,9.6,M,11.3,M,,0000*4D
$GPGSA,A,3,20,31,30,32,13,16,23,,,,,,2.6,1.2,2.2*33
$GPGSV,3,1,11,16,63,038,23,23,54,230,21,20,49,307,28,32,42,346,25*71
$GPGSV,3,2,11,31,37,120,26,13,22,236,25,30,11,139,21,29,09,134,26*70
$GPGSV,3,3,11,06,06,035,22,03,04,023,32,04,02,224,*4A
$GPRMC,033534.000,A,4332.0665,S,17235.0788,E,0.22,13.49,311010,,*27
$GPGGA,033535.000,4332.0666,S,17235.0783,E,1,07,1.2,10.1,M,11.3,M,,0000*7B
$GPGSA,A,3,20,31,30,32,13,16,23,,,,,,2.6,1.2,2.2*33
$GPRMC,033535.000,A,4332.0666,S,17235.0783,E,0.52,243.52,311010,,*14
$GPGGA,033536.000,4332.0667,S,17235.0775,E,1,07,1.2,9.1,M,11.3,M,,0000*48
$GPGSA,A,3,20,31,30,32,13,16,23,,,,,,2.6,1.2,2.2*33
$GPRMC,033536.000,A,4332.0667,S,17235.0775,E,0.35,281.03,311010,,*14
$GPGGA,033537.000,4332.0669,S,17235.0768,E,1,07,1.2,9.3,M,11.3,M,,0000*49
$GPGSA,A,3,20,31,30,32,13,16,23,,,,,,2.6,1.2,2.2*33
$GPRMC,033537.000,A,4332.0669,S,17235.0768,E,0.38,134.65,311010,,*17
$GPGGA,033538.000,4332.0670,S,17235.0765,E,1,07,1.2,9.7,M,11.3,M,,0000*47
$GPGSA,A,3,20,31,30,32,13,16,23,,,,,,2.6,1.2,2.2*33
$GPRMC,033538.000,A,4332.0670,S,17235.0765,E,0.38,269.22,311010,,*15
$GPGGA,033539.000,4332.0664,S,17235.0766,E,1,07,1.2,6.7,M,11.3,M,,0000*4F
$GPGSA,A,3,20,31,30,32,13,16,23,,,,,,2.6,1.2,2.2*33
$GPGSV,3,1,11,16,63,038,28,23,54,230,29,20,49,307,32,32,42,346,25*79
$GPGSV,3,2,11,31,37,120,25,13,22,236,27,30,11,139,21,29,09,134,21*76
$GPGSV,3,3,11,06,06,035,21,03,04,023,25,04,02,224,*4F
$GPRMC,033539.000,A,4332.0664,S,17235.0766,E,0.53,11.05,311010,,*27
$GPGGA,033540.000,4332.0654,S,17235.0765,E,1,07,1.2,3.3,M,11.3,M,,0000*40
$GPGSA,A,3,20,31,30,32,13,16,23,,,,,,2.6,1.2,2.2*33
$GPRMC,033540.000,A,4332.0654,S,17235.0765,E,0.71,11.04,311010,,*28
$GPGGA,033541.000,4332.0649,S,17235.0762,E,1,07,1.2,2.0,M,11.3,M,,0000*48
$GPGSA,A,3,20,31,30,32,13,16,23,,,,,,2.6,1.2,2.2*33
$GPRMC,033541.000,A,4332.0649,S,17235.0762,E,1.08,358.63,311010,,*12
$GPGGA,033542.000,4332.0646,S,17235.0762,E,1,07,1.2,1.4,M,11.3,M,,0000*43
$GPGSA,A,3,20,31,30,32,13,16,23,,,,,,2.6,1.2,2.2*33
$GPRMC,033542.000,A,4332.0646,S,17235.0762,E,0.73,9.21,311010,,*12
$GPGGA,033543.000,4332.0643,S,17235.0762,E,1,07,1.2,0.5,M,11.3,M,,0000*47
$GPGSA,A,3,20,31,30,32,13,16,23,,,,,,2.6,1.2,2.2*33
$GPRMC,033543.000,A,4332.0643,S,17235.0762,E,0.58,15.28,311010,,*2B
$GPGGA,033544.000,4332.0641,S,17235.0762,E,1,07,1.2,-0.3,M,11.3,M,,0000*69
$GPGSA,A,3,20,31,30,32,13,16,23,,,,,,2.6,1.2,2.2*33
$GPGSV,3,1,11,16,63,038,26,23,54,230,23,20,49,307,32,32,42,346,27*7F
$GPGSV,3,2,11,31,37,120,30,13,22,236,29,30,11,139,26,29,09,134,23*79
$GPGSV,3,3,11,06,06,035,28,03,04,023,26,04,02,224,*45
$GPRMC,033544.000,A,4332.0641,S,17235.0762,E,0.51,10.73,311010,,*2C
$GPGGA,033545.000,4332.0639,S,17235.0764,E,1,07,1.2,-0.2,M,11.3,M,,0000*60
$GPGSA,A,3,20,31,30,32,13,16,23,,,,,,2.6,1.2,2.2*33
$GPRMC,033545.000,A,4332.0639,S,17235.0764,E,0.72,26.32,311010,,*25
$GPGGA,033546.000,4332.0639,S,17235.0763,E,1,07,1.2,0.1,M,11.3,M,,0000*4A
$GPGSA,A,3,20,31,30,32,13,16,23,,,,,,2.6,1.2,2.2*33
$GPRMC,033546.000,A,4332.0639,S,17235.0763,E,0.91,343.79,311010,,*13
$GPGGA,033547.000,4332.0641,S,17235.0757,E,1,06,1.7,2.2,M,11.3,M,,0000*46
$GPGSA,A,3,20,31,30,13,16,23,,,,,,,3.2,1.7,2.7*37
$GPRMC,033547.000,A,4332.0641,S,17235.0757,E,0.66,351.37,311010,,*1B
$GPGGA,033548.000,4332.0645,S,17235.0751,E,1,06,1.7,4.7,M,11.3,M,,0000*48
$GPGSA,A,3,20,31,30,13,16,23,,,,,,,3.2,1.7,2.7*37
$GPRMC,033548.000,A,4332.0645,S,17235.0751,E,0.78,292.52,311010,,*14
$GPGGA,033549.000,4332.0652,S,17235.0745,E,1,07,1.2,7.1,M,11.3,M,,0000*4B
$GPGSA,A,3,20,31,30,32,13,16,23,,,,,,2.6,1.2,2.2*33
$GPGSV,3,1,11,16,64,039,21,23,54,230,25,20,49,308,24,32,42,346,12*76
$GPGSV,3,2,11,31,36,119,21,13,23,236,29,30,11,139,21,29,09,134,23*74
$GPGSV,3,3,11,06,07,035,22,03,04,024,19,04,02,224,*45
$GPRMC,033549.000,A,4332.0652,S,17235.0745,E,0.51,300.14,311010,,*15
$GPGGA,033550.000,4332.0666,S,17235.0746,E,1,05,2.8,9.7,M,11.3,M,,0000*44
$GPGSA,A,3,20,31,30,32,16,,,,,,,,4.3,2.8,3.3*3A
$GPRMC,033550.000,A,4332.0666,S,17235.0746,E,0.90,187.12,311010,,*1F
$GPGGA,033551.000,4332.0674,S,17235.0751,E,1,06,1.7,11.2,M,11.3,M,,0000*73
$GPGSA,A,3,20,31,30,32,13,16,,,,,,,3.6,1.7,3.2*37
$GPRMC,033551.000,A,4332.0674,S,17235.0751,E,0.80,162.34,311010,,*15
$GPGGA,033552.000,4332.0675,S,17235.0753,E,1,06,1.7,12.9,M,11.3,M,,0000*7B
$GPGSA,A,3,20,31,30,32,13,16,,,,,,,3.6,1.7,3.2*37
$GPRMC,033552.000,A,4332.0675,S,17235.0753,E,0.81,190.27,311010,,*1B
$GPGGA,033553.000,4332.0668,S,17235.0761,E,1,07,1.2,13.4,M,11.3,M,,0000*7F
$GPGSA,A,3,20,31,30,32,13,16,23,,,,,,2.6,1.2,2.2*33
$GPRMC,033553.000,A,4332.0668,S,17235.0761,E,0.66,66.68,311010,,*2D
$GPGGA,033554.000,4332.0669,S,17235.0763,E,1,06,1.7,14.6,M,11.3,M,,0000*7A
$GPGSA,A,3,20,31,30,32,13,16,,,,,,,3.6,1.7,3.2*37
$GPGSV,3,1,11,16,64,039,20,23,54,230,,20,49,308,24,32,42,346,24*75
$GPGSV,3,2,11,31,36,119,21,13,23,236,28,30,11,139,21,29,09,134,19*7C
$GPGSV,3,3,11,06,07,035,22,03,04,024,37,04,02,224,*49
$GPRMC,033554.000,A,4332.0669,S,17235.0763,E,0.13,115.30,311010,,*13
$GPGGA,033555.000,4332.0669,S,17235.0762,E,1,06,1.7,15.4,M,11.3,M,,0000*79
$GPGSA,A,3,20,31,30,32,13,16,,,,,,,3.6,1.7,3.2*37
$GPRMC,033555.000,A,4332.0669,S,17235.0762,E,0.48,163.01,311010,,*1E
$GPGGA,033556.000,4332.0668,S,17235.0760,E,1,07,1.2,15.3,M,11.3,M,,0000*7A
$GPGSA,A,3,20,31,30,32,13,16,23,,,,,,2.6,1.2,2.2*33
$GPRMC,033556.000,A,4332.0668,S,17235.0760,E,0.37,266.39,311010,,*1B
$GPGGA,033557.000,4332.0663,S,17235.0753,E,1,07,1.2,14.7,M,11.3,M,,0000*75
$GPGSA,A,3,20,31,30,32,13,16,23,,,,,,2.6,1.2,2.2*33
$GPRMC,033557.000,A,4332.0663,S,17235.0753,E,0.95,267.18,311010,,*1B
$GPGGA,033558.000,4332.0656,S,17235.0761,E,1,07,1.2,14.6,M,11.3,M,,0000*7C
$GPGSA,A,3,20,31,30,32,13,16,23,,,,,,2.6,1.2,2.2*33
$GPRMC,033558.000,A,4332.0656,S,17235.0761,E,0.43,181.59,311010,,*16
$GPGGA,033559.000,4332.0656,S,17235.0770,E,1,07,1.2,12.8,M,11.3,M,,0000*75
$GPGSA,A,3,20,31,30,32,13,16,23,,,,,,2.6,1.2,2.2*33
$GPGSV,3,1,11,16,64,039,26,23,54,230,22,20,49,308,27,32,42,346,26*72
$GPGSV,3,2,11,31,36,119,22,13,23,236,28,30,11,139,21,29,09,134,21*74
$GPGSV,3,3,11,06,07,035,28,03,04,024,35,04,02,224,*41
$GPRMC,033559.000,A,4332.0656,S,17235.0770,E,0.44,111.50,311010,,*10
$GPGGA,033600.000,4332.0662,S,17235.0777,E,1,07,1.2,12.9,M,11.3,M,,0000*7B
$GPGSA,A,3,20,31,30,32,13,16,23,,,,,,2.6,1.2,2.2*33
$GPRMC,033600.000,A,4332.0662,S,17235.0777,E,0.52,140.03,311010,,*1A
$GPGGA,033601.000,4332.0660,S,17235.0782,E,1,06,1.3,11.0,M,11.3,M,,0000*78
$GPGSA,A,3,20,31,30,32,13,23,,,,,,,2.8,1.3,2.5*3C
$GPRMC,033601.000,A,4332.0660,S,17235.0782,E,0.45,40.80,311010,,*2F
$GPGGA,033602.000,4332.0666,S,17235.0780,E,1,07,1.2,12.6,M,11.3,M,,0000*7A
$GPGSA,A,3,20,31,30,32,13,16,23,,,,,,2.6,1.2,2.2*33
$GPRMC,033602.000,A,4332.0666,S,17235.0780,E,0.10,138.95,311010,,*12
$GPGGA,033603.000,4332.0669,S,17235.0781,E,1,07,1.2,12.8,M,11.3,M,,0000*7B
$GPGSA,A,3,20,31,30,32,13,16,23,,,,,,2.6,1.2,2.2*33
$GPRMC,033603.000,A,4332.0669,S,17235.0781,E,0.32,97.83,311010,,*2E
$GPGGA,033604.000,4332.0671,S,17235.0780,E,1,07,1.2,12.5,M,11.3,M,,0000*79
$GPGSA,A,3,20,31,30,32,13,16,23,,,,,,2.5,1.2,2.2*30
$GPGSV,3,1,11,16,64,039,21,23,54,230,23,20,49,308,24,32,42,346,28*79
$GPGSV,3,2,11,31,36,119,17,13,23,236,28,30,11,139,22,29,09,134,28*78
$GPGSV,3,3,11,06,07,035,25,03,04,024,25,04,02,224,*4D
$GPRMC,033604.000,A,4332.0671,S,17235.0780,E,0.10,219.43,311010,,*19
$GPGGA,033605.000,4332.0671,S,17235.0780,E,1,06,1.3,11.7,M,11.3,M,,0000*79
$GPGSA,A,3,20,31,30,32,13,23,,,,,,,2.8,1.3,2.5*3C
$GPRMC,033605.000,A,4332.0671,S,17235.0780,E,0.04,53.12,311010,,*25
$GPGGA,033606.000,4332.0672,S,17235.0777,E,1,07,1.2,11.5,M,11.3,M,,0000*73
$GPGSA,A,3,20,31,30,32,13,16,23,,,,,,2.5,1.2,2.2*30
$GPRMC,033606.000,A,4332.0672,S,17235.0777,E,1.07,291.15,311010,,*14
$GPGGA,033607.000,4332.0677,S,17235.0772,E,1,07,1.2,12.0,M,11.3,M,,0000*74
$GPGSA,A,3,20,31,30,32,13,16,23,,,,,,2.5,1.2,2.2*30
$GPRMC,033607.000,A,4332.0677,S,17235.0772,E,0.56,230.75,311010,,*1D
$GPGGA,033608.000,4332.0685,S,17235.0767,E,1,06,1.3,12.7,M,11.3,M,,0000*75
$GPGSA,A,3,31,30,32,13,16,23,,,,,,,2.6,1.3,2.2*30
$GPRMC,033608.000,A,4332.0685,S,17235.0767,E,1.68,174.35,311010,,*10
$GPGGA,033609.000,4332.0687,S,17235.0772,E,1,05,2.5,12.7,M,11.3,M,,0000*74
$GPGSA,A,3,31,30,13,16,23,,,,,,,,4.1,2.5,3.2*34
$GPGSV,3,1,11,16,64,039,13,23,54,230,29,20,49,308,11,32,42,346,18*77
$GPGSV,3,2,11,31,36,119,18,13,23,236,33,30,11,139,23,29,09,134,27*73
$GPGSV,3,3,11,06,07,035,22,03,04,024,26,04,02,224,*49
$GPRMC,033609.000,A,4332.0687,S,17235.0772,E,0.53,144.64,311010,,*19
$GPGGA,033610.000,4332.0687,S,17235.0775,E,1,05,2.5,11.9,M,11.3,M,,0000*76
$GPGSA,A,3,31,30,13,16,23,,,,,,,,4.1,2.5,3.2*34
$GPRMC,033610.000,A,4332.0687,S,17235.0775,E,0.66,92.95,311010,,*24
$GPGGA,033611.000,4332.0690,S,17235.0776,E,1,06,1.3,12.5,M,11.3,M,,0000*7B
$GPGSA,A,3,31,30,32,13,16,23,,,,,,,2.6,1.3,2.2*30
$GPRMC,033611.000,A,4332.0690,S,17235.0776,E,0.61,29.21,311010,,*28
$GPGGA,033612.000,4332.0688,S,17235.0774,E,1,07,1.2,12.0,M,11.3,M,,0000*76
$GPGSA,A,3,20,31,30,32,13,16,23,,,,,,2.5,1.2,2.2*30
$GPRMC,033612.000,A,4332.0688,S,17235.0774,E,0.95,323.46,311010,,*13
$GPGGA,033613.000,4332.0693,S,17235.0769,E,1,07,1.2,12.1,M,11.3,M,,0000*70
$GPGSA,A,3,20,31,30,32,13,16,23,,,,,,2.5,1.2,2.2*30
$GPRMC,033613.000,A,4332.0693,S,17235.0769,E,0.75,295.27,311010,,*11
$GPGGA,033614.000,4332.0690,S,17235.0763,E,1,07,1.2,11.9,M,11.3,M,,0000*75
$GPGSA,A,3,20,31,30,32,13,16,23,,,,,,2.5,1.2,2.2*30
$GPGSV,3,1,11,16,64,039,13,23,54,230,28,20,49,308,13,32,42,346,18*74
$GPGSV,3,2,11,31,36,119,17,13,23,236,32,30,11,139,22,29,09,134,27*7C
$GPGSV,3,3,11,06,07,035,22,03,04,024,25,04,02,224,*4A
$GPRMC,033614.000,A,4332.0690,S,17235.0763,E,0.68,292.80,311010,,*19
$GPGGA,033615.000,4332.0690,S,17235.0759,E,1,07,1.2,11.3,M,11.3,M,,0000*77
$GPGSA,A,3,20,31,30,32,13,16,23,,,,,,2.5,1.2,2.2*30
$GPRMC,033615.000,A,4332.0690,S,17235.0759,E,1.20,283.38,311010,,*1F
$GPGGA,033616.000,4332.0690,S,17235.0754,E,1,07,1.2,10.9,M,11.3,M,,0000*72
$GPGSA,A,3,20,31,30,32,13,16,23,,,,,,2.5,1.2,2.2*30
$GPRMC,033616.000,A,4332.0690,S,17235.0754,E,0.81,254.76,311010,,*1B
$GPGGA,033617.000,4332.0684,S,17235.0754,E,1,07,1.2,8.5,M,11.3,M,,0000*43
$GPGSA,A,3,20,31,30,32,13,16,23,,,,,,2.5,1.2,2.2*30
$GPRMC,033617.000,A,4332.0684,S,17235.0754,E,0.32,144.29,311010,,*1F
$GPGGA,033618.000,4332.0680,S,17235.0756,E,1,07,1.2,7.1,M,11.3,M,,0000*41
$GPGSA,A,3,20,31,30,32,13,16,23,,,,,,2.5,1.2,2.2*30
$GPRMC,033618.000,A,4332.0680,S,17235.0756,E,0.58,106.79,311010,,*19
$GPGGA,033619.000,4332.0681,S,17235.0760,E,1,07,1.2,6.5,M,11.3,M,,0000*41
$GPGSA,A,3,20,31,30,32,13,16,23,,,,,,2.5,1.2,2.2*30
$GPGSV,3,1,11,16,64,039,21,23,54,230,23,20,49,308,19,32,41,346,19*76
$GPGSV,3,2,11,31,36,119,18,13,23,236,33,30,10,139,21,29,09,134,26*71
$GPGSV,3,3,11,06,07,036,21,03,04,024,25,04,02,224,*4A
$GPRMC,033619.000,A,4332.0681,S,17235.0760,E,0.43,31.86,311010,,*23
$GPGGA,033620.000,4332.0681,S,17235.0761,E,1,07,1.2,7.0,M,11.3,M,,0000*4E
$GPGSA,A,3,20,31,30,32,13,16,23,,,,,,2.5,1.2,2.2*30
$GPRMC,033620.000,A,4332.0681,S,17235.0761,E,0.39,73.65,311010,,*2E
$GPGGA,033621.000,4332.0687,S,17235.0763,E,1,07,1.2,7.6,M,11.3,M,,0000*4D
$GPGSA,A,3,20,31,30,32,13,16,23,,,,,,2.5,1.2,2.2*30
$GPRMC,033621.000,A,4332.0687,S,17235.0763,E,0.25,117.51,311010,,*12
$GPGGA,033622.000,4332.0687,S,17235.0763,E,1,07,1.2,7.8,M,11.3,M,,0000*40
$GPGSA,A,3,20,31,30,32,13,16,23,,,,,,2.5,1.2,2.2*30
$GPRMC,033622.000,A,4332.0687,S,17235.0763,E,0.24,92.05,311010,,*2D
$GPGGA,033623.000,4332.0687,S,17235.0763,E,1,07,1.2,7.4,M,11.3,M,,0000*4D
$GPGSA,A,3,20,31,30,32,13,16,23,,,,,,2.5,1.2,2.2*30
$GPRMC,033623.000,A,4332.0687,S,17235.0763,E,0.19,266.45,311010,,*1F
$GPGGA,033624.000,4332.0681,S,17235.0759,E,1,07,1.2,4.3,M,11.3,M,,0000*41
$GPGSA,A,3,20,31,30,32,13,16,23,,,,,,2.5,1.2,2.2*30
$GPGSV,3,1,11,16,64,039,18,23,54,230,25,20,49,308,22,32,41,346,25*7D
$GPGSV,3,2,11,31,36,119,19,13,23,236,22,30,10,139,21,29,09,134,16*73
$GPGSV,3,3,11,06,07,036,14,03,04,024,24,04,02,224,*4D
$GPRMC,033624.000,A,4332.0681,S,17235.0759,E,1.11,315.35,311010,,*1C
$GPGGA,033625.000,4332.0678,S,17235.0754,E,1,06,1.3,2.8,M,11.3,M,,0000*46
$GPGSA,A,3,20,31,32,13,16,23,,,,,,,3.2,1.3,3.0*37
$GPRMC,033625.000,A,4332.0678,S,17235.0754,E,1.19,352.82,311010,,*11
$GPGGA,033626.000,4332.0676,S,17235.0747,E,1,07,1.2,4.7,M,11.3,M,,0000*40
$GPGSA,A,3,20,31,30,32,13,16,23,,,,,,2.5,1.2,2.2*30
$GPRMC,033626.000,A,4332.0676,S,17235.0747,E,0.77,335.16,311010,,*1B
$GPGGA,033627.000,4332.0670,S,17235.0751,E,1,07,1.2,5.5,M,11.3,M,,0000*43
$GPGSA,A,3,20,31,30,32,13,16,23,,,,,,2.5,1.2,2.2*30
$GPRMC,033627.000,A,4332.0670,S,17235.0751,E,0.69,10.36,311010,,*22
$GPGGA,033628.000,4332.0672,S,17235.0758,E,1,07,1.2,7.4,M,11.3,M,,0000*44
$GPGSA,A,3,20,31,30,32,13,16,23,,,,,,2.5,1.2,2.2*30
$GPRMC,033628.000,A,4332.0672,S,17235.0758,E,0.49,350.54,311010,,*17
$GPGGA,033629.000,4332.0667,S,17235.0766,E,1,07,1.2,6.1,M,11.3,M,,0000*48
$GPGSA,A,3,20,31,30,32,13,16,23,,,,,,2.5,1.2,2.2*30
$GPGSV,3,1,11,16,64,039,23,23,54,230,22,20,49,308,28,32,41,346,24*79
$GPGSV,3,2,11,31,36,119,18,13,23,236,28,30,10,139,19,29,09,134,21*77
$GPGSV,3,3,11,06,07,036,24,03,04,024,36,04,02,224,21*4E
$GPRMC,033629.000,A,4332.0667,S,17235.0766,E,0.74,66.61,311010,,*21
$GPGGA,033630.000,4332.0666,S,17235.0768,E,1,06,1.4,4.2,M,11.3,M,,0000*49
$GPGSA,A,3,20,30,32,13,16,23,,,,,,,2.7,1.4,2.3*37
$GPRMC,033630.000,A,4332.0666,S,17235.0768,E,0.59,101.06,311010,,*18
$GPGGA,033631.000,4332.0671,S,17235.0765,E,1,07,1.2,5.2,M,11.3,M,,0000*45
$GPGSA,A,3,20,31,30,32,13,16,23,,,,,,2.5,1.2,2.2*30
$GPRMC,033631.000,A,4332.0671,S,17235.0765,E,0.32,186.80,311010,,*1E
$GPGGA,033632.000,4332.0665,S,17235.0768,E,1,07,1.2,5.6,M,11.3,M,,0000*4A
$GPGSA,A,3,20,31,30,32,13,16,23,,,,,,2.5,1.2,2.2*30
$GPRMC,033632.000,A,4332.0665,S,17235.0768,E,0.42,289.72,311010,,*13
$GPGGA,033633.000,4332.0666,S,17235.0765,E,1,07,1.2,6.1,M,11.3,M,,0000*41
$GPGSA,A,3,20,31,30,32,13,16,23,,,,,,2.5,1.2,2.2*30
$GPRMC,033633.000,A,4332.0666,S,17235.0765,E,0.23,278.14,311010,,*15
$GPGGA,033634.000,4332.0666,S,17235.0773,E,1,07,1.2,6.9,M,11.3,M,,0000*49
$GPGSA,A,3,20,31,30,32,13,16,23,,,,,,2.5,1.2,2.2*30
$GPGSV,3,1,11,16,64,039,29,23,54,230,22,20,49,308,27,32,41,346,31*78
$GPGSV,3,2,11,31,36,119,26,13,23,236,18,30,10,139,21,29,09,134,21*72
$GPGSV,3,3,11,06,07,036,25,03,04,024,36,04,02,224,*4C
$GPRMC,033634.000,A,4332.0666,S,17235.0773,E,0.19,122.71,311010,,*13
$GPGGA,033635.000,4332.0665,S,17235.0778,E,1,07,1.2,7.5,M,11.3,M,,0000*4D
$GPGSA,A,3,20,31,30,32,13,16,23,,,,,,2.5,1.2,2.2*30
$GPRMC,033635.000,A,4332.0665,S,17235.0778,E,0.28,81.48,311010,,*2A
$GPGGA,033636.000,4332.0665,S,17235.0781,E,1,07,1.2,8.3,M,11.3,M,,0000*41
$GPGSA,A,3,20,31,30,32,13,16,23,,,,,,2.5,1.2,2.2*30
$GPRMC,033636.000,A,4332.0665,S,17235.0781,E,0.40,234.94,311010,,*1C
$GPGGA,033637.000,4332.0661,S,17235.0789,E,1,07,1.2,8.5,M,11.3,M,,0000*4A
$GPGSA,A,3,20,31,30,32,13,16,23,,,,,,2.5,1.2,2.2*30
$GPRMC,033637.000,A,4332.0661,S,17235.0789,E,0.36,59.35,311010,,*22
$GPGGA,033638.000,4332.0659,S,17235.0793,E,1,07,1.2,9.7,M,11.3,M,,0000*46
$GPGSA,A,3,20,31,30,32,13,16,23,,,,,,2.5,1.2,2.2*30
$GPRMC,033638.000,A,4332.0659,S,17235.0793,E,0.52,73.20,311010,,*23
$GPGGA,033639.000,4332.0657,S,17235.0799,E,1,07,1.2,10.9,M,11.3,M,,0000*75
$GPGSA,A,3,20,31,30,32,13,16,23,,,,,,2.5,1.2,2.2*30
$GPGSV,3,1,11,16,64,039,29,23,54,230,23,20,49,308,22,32,41,346,32*7F
$GPGSV,3,2,11,31,36,119,24,13,23,236,20,30,10,139,27,29,09,134,20*7C
$GPGSV,3,3,11,06,07,036,24,03,04,024,36,04,02,224,*4D
$GPRMC,033639.000,A,4332.0657,S,17235.0799,E,0.17,164.09,311010,,*1B
$GPGGA,033640.000,4332.0659,S,17235.0792,E,1,07,1.2,11.0,M,11.3,M,,0000*76
$GPGSA,A,3,20,31,30,32,13,16,23,,,,,,2.5,1.2,2.2*30
$GPRMC,033640.000,A,4332.0659,S,17235.0792,E,0.47,256.10,311010,,*1F
$GPGGA,033641.000,4332.0654,S,17235.0794,E,1,07,1.2,10.8,M,11.3,M,,0000*75
$GPGSA,A,3,20,31,30,32,13,16,23,,,,,,2.5,1.2,2.2*30
$GPRMC,033641.000,A,4332.0654,S,17235.0794,E,0.39,324.59,311010,,*15
$GPGGA,033642.000,4332.0658,S,17235.0793,E,1,07,1.2,11.6,M,11.3,M,,0000*72
$GPGSA,A,3,20,31,30,32,13,16,23,,,,,,2.5,1.2,2.2*30
$GPRMC,033642.000,A,4332.0658,S,17235.0793,E,0.28,270.37,311010,,*15
$GPGGA,033643.000,4332.0661,S,17235.0789,E,1,07,1.2,11.9,M,11.3,M,,0000*7D
$GPGSA,A,3,20,31,30,32,13,16,23,,,,,,2.5,1.2,2.2*30
$GPRMC,033643.000,A,4332.0661,S,17235.0789,E,0.19,103.28,311010,,*1E
$GPGGA,033644.000,4332.0657,S,17235.0794,E,1,07,1.2,11.4,M,11.3,M,,0000*7E
$GPGSA,A,3,20,31,30,32,13,16,23,,,,,,2.5,1.2,2.2*30
$GPGSV,3,1,11,16,64,039,29,23,54,230,24,20,49,308,26,32,41,346,31*7F
$GPGSV,3,2,11,31,36,119,17,13,23,236,24,30,10,139,26,29,09,134,20*79
$GPGSV,3,3,11,06,07,036,24,03,04,024,36,04,02,224,*4D
$GPRMC,033644.000,A,4332.0657,S,17235.0794,E,0.28,78.24,311010,,*23
$GPGGA,033645.000,4332.0651,S,17235.0800,E,1,07,1.2,10.8,M,11.3,M,,0000*76
$GPGSA,A,3,20,31,30,32,13,16,23,,,,,,2.5,1.2,2.2*30
$GPRMC,033645.000,A,4332.0651,S,17235.0800,E,0.83,51.11,311010,,*2A
$GPGGA,033646.000,4332.0644,S,17235.0806,E,1,07,1.2,10.2,M,11.3,M,,0000*7D
$GPGSA,A,3,20,31,30,32,13,16,23,,,,,,2.5,1.2,2.2*30
$GPRMC,033646.000,A,4332.0644,S,17235.0806,E,0.89,50.79,311010,,*2E
$GPGGA,033647.000,4332.0642,S,17235.0810,E,1,07,1.2,10.7,M,11.3,M,,0000*78
$GPGSA,A,3,20,31,30,32,13,16,23,,,,,,2.5,1.2,2.2*30
$GPRMC,033647.000,A,4332.0642,S,17235.0810,E,0.47,52.22,311010,,*20
$GPGGA,033648.000,4332.0638,S,17235.0814,E,1,07,1.2,10.5,M,11.3,M,,0000*7C
$GPGSA,A,3,20,31,30,32,13,16,23,,,,,,2.5,1.2,2.2*30
$GPRMC,033648.000,A,4332.0638,S,17235.0814,E,0.71,49.71,311010,,*2F
$GPGGA,033649.000,4332.0638,S,17235.0814,E,1,07,1.2,10.5,M,11.3,M,,0000*7D
$GPGSA,A,3,20,31,30,32,13,16,23,,,,,,2.5,1.2,2.2*30
$GPGSV,3,1,11,16,64,040,29,23,55,230,24,20,48,308,26,32,41,346,31*71
$GPGSV,3,2,11,31,36,119,14,13,23,236,23,30,10,139,24,29,09,135,19*74
$GPGSV,3,3,11,06,07,036,24,03,05,024,36,04,02,225,*4D
$GPRMC,033649.000,A,4332.0638,S,17235.0814,E,0.29,203.68,311010,,*17
$GPGGA,033650.000,4332.0640,S,17235.0813,E,1,07,1.2,11.6,M,11.3,M,,0000*7F
$GPGSA,A,3,20,31,30,32,13,16,23,,,,,,2.5,1.2,2.2*30
$GPRMC,033650.000,A,4332.0640,S,17235.0813,E,0.15,74.78,311010,,*2B
$GPGGA,033651.000,4332.0642,S,17235.0800,E,1,07,1.2,10.6,M,11.3,M,,0000*7F
$GPGSA,A,3,20,31,30,32,13,16,23,,,,,,2.5,1.2,2.2*30
$GPRMC,033651.000,A,4332.0642,S,17235.0800,E,0.19,131.38,311010,,*12
$GPGGA,033652.000,4332.0644,S,17235.0795,E,1,07,1.2,9.8,M,11.3,M,,0000*4F
$GPGSA,A,3,20,31,30,32,13,16,23,,,,,,2.5,1.2,2.2*30
$GPRMC,033652.000,A,4332.0644,S,17235.0795,E,0.23,330.92,311010,,*1E
$GPGGA,033653.000,4332.0646,S,17235.0791,E,1,07,1.2,9.4,M,11.3,M,,0000*44
$GPGSA,A,3,20,31,30,32,13,16,23,,,,,,2.5,1.2,2.2*30
$GPRMC,033653.000,A,4332.0646,S,17235.0791,E,0.54,82.19,311010,,*20
$GPGGA,033654.000,4332.0650,S,17235.0784,E,1,07,1.2,9.5,M,11.3,M,,0000*41
$GPGSA,A,3,20,31,30,32,13,16,23,,,,,,2.5,1.2,2.2*30
$GPGSV,3,1,11,16,64,040,23,23,55,230,22,20,48,308,26,32,41,346,28*75
$GPGSV,3,2,11,31,36,119,20,13,23,236,28,30,10,139,22,29,09,135,20*74
$GPGSV,3,3,11,06,07,036,22,03,05,024,30,04,02,225,*4D
$GPRMC,033654.000,A,4332.0650,S,17235.0784,E,0.68,114.98,311010,,*1C
$GPGGA,033655.000,4332.0649,S,17235.0785,E,1,07,1.2,8.8,M,11.3,M,,0000*45
$GPGSA,A,3,20,31,30,32,13,16,23,,,,,,2.5,1.2,2.2*30
$GPRMC,033655.000,A,4332.0649,S,17235.0785,E,0.72,51.75,311010,,*2C
$GPGGA,033656.000,4332.0652,S,17235.0783,E,1,07,1.2,9.1,M,11.3,M,,0000*42
$GPGSA,A,3,20,31,30,32,13,16,23,,,,,,2.5,1.2,2.2*30
$GPRMC,033656.000,A,4332.0652,S,17235.0783,E,0.21,330.02,311010,,*11
$GPGGA,033657.000,4332.0652,S,17235.0783,E,1,06,1.5,8.9,M,11.3,M,,0000*4C
$GPGSA,A,3,20,31,30,32,16,23,,,,,,,2.9,1.5,2.5*3E
$GPRMC,033657.000,A,4332.0652,S,17235.0783,E,0.52,16.99,311010,,*21
$GPGGA,033658.000,4332.0666,S,17235.0787,E,1,06,1.3,11.2,M,11.3,M,,0000*75
$GPGSA,A,3,20,31,30,32,13,23,,,,,,,2.8,1.3,2.5*3C
$GPRMC,033658.000,A,4332.0666,S,17235.0787,E,1.06,218.92,311010,,*1A
$GPGGA,033659.000,4332.0678,S,17235.0779,E,1,04,3.3,11.6,M,11.3,M,,0000*7E
$GPGSA,A,3,20,30,32,13,,,,,,,,,9.9,3.3,9.3*3A
$GPGSV,3,1,11,16,64,040,,23,55,230,10,20,48,308,21,32,41,346,21*7B
$GPGSV,3,2,11,31,36,119,18,13,23,236,17,30,10,139,23,29,09,135,24*76
$GPGSV,3,3,11,06,07,036,21,03,05,024,22,04,02,225,*4D
$GPRMC,033659.000,A,4332.0678,S,17235.0779,E,2.85,214.19,311010,,*12
$GPGGA,033700.000,4332.0687,S,17235.0775,E,1,03,3.2,11.8,M,11.3,M,,0000*77
$GPGSA,A,2,20,30,32,,,,,,,,,,3.3,3.2,1.0*33
$GPRMC,033700.000,A,4332.0687,S,17235.0775,E,2.48,205.15,311010,,*1E
$GPGGA,033701.000,4332.0696,S,17235.0769,E,1,04,3.3,12.0,M,11.3,M,,0000*76
$GPGSA,A,3,20,30,32,13,,,,,,,,,9.9,3.3,9.3*3A
$GPRMC,033701.000,A,4332.0696,S,17235.0769,E,1.87,212.76,311010,,*11
$GPGGA,033702.000,4332.0703,S,17235.0765,E,1,04,3.3,12.3,M,11.3,M,,0000*77
$GPGSA,A,3,20,30,32,13,,,,,,,,,9.9,3.3,9.3*3A
$GPRMC,033702.000,A,4332.0703,S,17235.0765,E,0.82,201.57,311010,,*16
$GPGGA,033703.000,4332.0705,S,17235.0769,E,1,04,3.3,12.9,M,11.3,M,,0000*76
$GPGSA,A,3,20,30,32,13,,,,,,,,,9.9,3.3,9.3*3A
$GPRMC,033703.000,A,4332.0705,S,17235.0769,E,0.72,77.41,311010,,*26
$GPGGA,033704.000,4332.0708,S,17235.0770,E,1,04,3.3,13.4,M,11.3,M,,0000*78
$GPGSA,A,3,20,30,32,13,,,,,,,,,9.9,3.3,9.3*3A
$GPGSV,3,1,11,16,64,040,,23,55,230,11,20,48,308,19,32,41,346,15*76
$GPGSV,3,2,11,31,36,119,17,13,23,236,19,30,10,139,23,29,09,135,25*76
$GPGSV,3,3,11,06,07,036,22,03,05,024,26,04,02,225,*4A
$GPRMC,033704.000,A,4332.0708,S,17235.0770,E,1.25,70.28,311010,,*2F
$GPGGA,033705.000,4332.0709,S,17235.0773,E,1,03,1.8,13.1,M,11.3,M,,0000*70
$GPGSA,A,2,20,30,13,,,,,,,,,,2.1,1.8,1.0*3B
$GPRMC,033705.000,A,4332.0709,S,17235.0773,E,1.05,67.50,311010,,*27
$GPGGA,033706.000,4332.0713,S,17235.0770,E,1,04,3.3,14.2,M,11.3,M,,0000*71
$GPGSA,A,3,20,30,32,13,,,,,,,,,9.9,3.3,9.4*3D
$GPRMC,033706.000,A,4332.0713,S,17235.0770,E,1.91,54.64,311010,,*26
$GPGGA,033707.000,4332.0714,S,17235.0780,E,1,04,3.1,15.6,M,11.3,M,,0000*7F
$GPGSA,A,3,20,31,30,13,,,,,,,,,6.4,3.1,5.6*30
$GPRMC,033707.000,A,4332.0714,S,17235.0780,E,2.51,41.50,311010,,*23
$GPGGA,033708.000,4332.0710,S,17235.0790,E,1,04,3.1,17.0,M,11.3,M,,0000*71
$GPGSA,A,3,20,31,30,13,,,,,,,,,6.4,3.1,5.6*30
$GPRMC,033708.000,A,4332.0710,S,17235.0790,E,1.80,34.34,311010,,*26
$GPGGA,033709.000,4332.0705,S,17235.0791,E,1,04,3.1,17.8,M,11.3,M,,0000*7D
$GPGSA,A,3,20,31,30,13,,,,,,,,,6.4,3.1,5.6*30
$GPGSV,3,1,11,16,64,040,,23,55,230,,20,48,308,19,32,41,346,15*76
$GPGSV,3,2,11,31,36,119,18,13,23,236,20,30,10,139,23,29,09,135,26*70
$GPGSV,3,3,11,06,07,036,22,03,05,024,27,04,02,225,*4B
$GPRMC,033709.000,A,4332.0705,S,17235.0791,E,0.94,8.82,311010,,*14
$GPGGA,033710.000,4332.0703,S,17235.0779,E,1,04,3.1,16.5,M,11.3,M,,0000*79
$GPGSA,A,3,20,31,30,13,,,,,,,,,6.4,3.1,5.6*30
$GPRMC,033710.000,A,4332.0703,S,17235.0779,E,0.61,335.68,311010,,*1F
$GPGGA,033711.000,4332.0706,S,17235.0768,E,1,05,1.7,15.7,M,11.3,M,,0000*79
$GPGSA,A,3,20,31,30,32,13,,,,,,,,4.3,1.7,4.0*37
$GPRMC,033711.000,A,4332.0706,S,17235.0768,E,0.71,291.15,311010,,*1F
$GPGGA,033712.000,4332.0716,S,17235.0762,E,1,05,1.7,15.5,M,11.3,M,,0000*73
$GPGSA,A,3,20,31,30,32,13,,,,,,,,4.3,1.7,4.0*37
$GPRMC,033712.000,A,4332.0716,S,17235.0762,E,0.84,178.95,311010,,*11
$GPGGA,033713.000,4332.0721,S,17235.0757,E,1,05,1.7,14.8,M,11.3,M,,0000*7C
$GPGSA,A,3,20,31,30,32,13,,,,,,,,4.3,1.7,4.0*37
$GPRMC,033713.000,A,4332.0721,S,17235.0757,E,1.35,207.22,311010,,*1E
$GPGGA,033714.000,4332.0727,S,17235.0751,E,1,05,1.7,15.7,M,11.3,M,,0000*75
$GPGSA,A,3,20,31,30,32,13,,,,,,,,4.3,1.7,4.0*37
$GPGSV,3,1,11,16,64,040,,23,55,230,,20,48,308,18,32,41,346,14*76
$GPGSV,3,2,11,31,36,119,19,13,23,236,20,30,10,139,23,29,09,135,26*71
$GPGSV,3,3,11,06,07,036,22,03,05,024,27,04,02,225,19*43
$GPRMC,033714.000,A,4332.0727,S,17235.0751,E,1.34,195.62,311010,,*14
$GPGGA,033715.000,4332.0728,S,17235.0747,E,1,05,1.7,15.6,M,11.3,M,,0000*7D
$GPGSA,A,3,20,31,30,32,13,,,,,,,,4.3,1.7,4.0*37
$GPRMC,033715.000,A,4332.0728,S,17235.0747,E,1.32,199.59,311010,,*1F
$GPGGA,033716.000,4332.0735,S,17235.0745,E,1,05,1.7,17.6,M,11.3,M,,0000*72
$GPGSA,A,3,20,31,30,32,13,,,,,,,,4.3,1.7,4.0*37
$GPRMC,033716.000,A,4332.0735,S,17235.0745,E,1.98,186.10,311010,,*11
$GPGGA,033717.000,4332.0746,S,17235.0734,E,1,05,1.7,17.9,M,11.3,M,,0000*7E
$GPGSA,A,3,20,31,30,32,13,,,,,,,,4.3,1.7,4.0*37
$GPRMC,033717.000,A,4332.0746,S,17235.0734,E,2.41,195.71,311010,,*10
$GPGGA,033718.000,4332.0757,S,17235.0728,E,1,05,1.7,18.4,M,11.3,M,,0000*7E
$GPGSA,A,3,20,31,30,32,13,,,,,,,,4.3,1.7,4.0*37
$GPRMC,033718.000,A,4332.0757,S,17235.0728,E,2.28,188.41,311010,,*12
$GPGGA,033719.000,4332.0767,S,17235.0723,E,1,06,1.3,21.9,M,11.3,M,,0000*77
$GPGSA,A,3,20,31,30,32,13,23,,,,,,,2.8,1.3,2.5*3C
$GPGSV,3,1,11,16,64,040,,23,55,230,16,20,48,308,18,32,41,346,15*70
$GPGSV,3,2,11,31,36,119,20,13,23,236,21,30,10,139,23,29,09,135,26*7A
$GPGSV,3,3,11,06,07,036,22,03,05,024,27,04,02,225,*4B
$GPRMC,033719.000,A,4332.0767,S,17235.0723,E,1.49,175.11,311010,,*18
$GPGGA,033720.000,4332.0773,S,17235.0722,E,1,06,1.3,25.4,M,11.3,M,,0000*70
$GPGSA,A,3,20,31,30,32,13,23,,,,,,,2.8,1.3,2.5*3C
$GPRMC,033720.000,A,4332.0773,S,17235.0722,E,1.14,161.14,311010,,*1E
$GPGGA,033721.000,4332.0773,S,17235.0728,E,1,06,1.3,25.5,M,11.3,M,,0000*7A
$GPGSA,A,3,20,31,30,32,13,23,,,,,,,2.8,1.3,2.5*3C
$GPRMC,033721.000,A,4332.0773,S,17235.0728,E,1.20,122.47,311010,,*13
$GPGGA,033722.000,4332.0770,S,17235.0730,E,1,06,1.3,23.2,M,11.3,M,,0000*72
$GPGSA,A,3,20,31,30,32,13,23,,,,,,,2.8,1.3,2.5*3C
$GPRMC,033722.000,A,4332.0770,S,17235.0730,E,0.60,69.34,311010,,*25
$GPGGA,033723.000,4332.0763,S,17235.0739,E,1,06,1.3,22.6,M,11.3,M,,0000*7D
$GPGSA,A,3,20,31,30,32,13,23,,,,,,,2.8,1.3,2.5*3C
$GPRMC,033723.000,A,4332.0763,S,17235.0739,E,1.44,53.50,311010,,*23
$GPGGA,033724.000,4332.0759,S,17235.0747,E,1,05,1.7,24.2,M,11.3,M,,0000*7F
$GPGSA,A,3,20,31,30,32,13,,,,,,,,4.3,1.7,4.0*37
$GPGSV,3,1,11,16,64,040,,23,55,230,18,20,48,308,18,32,41,346,16*7D
$GPGSV,3,2,11,31,36,119,20,13,23,236,22,30,10,139,23,29,09,135,26*79
$GPGSV,3,3,11,06,07,036,22,03,05,024,27,04,02,225,*4B
$GPRMC,033724.000,A,4332.0759,S,17235.0747,E,1.06,62.12,311010,,*26
$GPGGA,033725.000,4332.0755,S,17235.0752,E,1,05,1.3,23.4,M,11.3,M,,0000*73
$GPGSA,A,3,31,30,32,13,23,,,,,,,,2.8,1.3,2.5*3E
$GPRMC,033725.000,A,4332.0755,S,17235.0752,E,0.40,64.41,311010,,*2C
$GPGGA,033726.000,4332.0754,S,17235.0745,E,1,06,1.3,21.1,M,11.3,M,,0000*73
$GPGSA,A,3,20,31,30,32,13,23,,,,,,,2.8,1.3,2.5*3C
$GPRMC,033726.000,A,4332.0754,S,17235.0745,E,0.26,211.03,311010,,*1E
$GPGGA,033727.000,4332.0752,S,17235.0745,E,1,06,1.3,16.9,M,11.3,M,,0000*78
$GPGSA,A,3,20,31,30,32,13,23,,,,,,,2.8,1.3,2.5*3C
$GPRMC,033727.000,A,4332.0752,S,17235.0745,E,0.47,189.20,311010,,*1D
$GPGGA,033728.000,4332.0744,S,17235.0753,E,1,07,1.0,12.9,M,11.3,M,,0000*71
$GPGSA,A,3,20,31,30,32,13,23,03,,,,,,2.0,1.0,1.7*35
$GPRMC,033728.000,A,4332.0744,S,17235.0753,E,0.22,126.16,311010,,*11
$GPGGA,033729.000,4332.0731,S,17235.0760,E,1,06,1.0,8.1,M,11.3,M,,0000*40
$GPGSA,A,3,31,30,32,13,23,03,,,,,,,2.0,1.0,1.8*38
$GPGSV,3,1,11,16,64,040,,23,55,230,24,20,48,308,17,32,41,346,17*7C
$GPGSV,3,2,11,31,36,119,20,13,23,236,23,30,10,139,24,29,09,135,26*7F
$GPGSV,3,3,11,06,07,036,23,03,05,024,27,04,02,225,*4A
$GPRMC,033729.000,A,4332.0731,S,17235.0760,E,0.57,84.57,311010,,*2C
$GPGGA,033730.000,4332.0724,S,17235.0758,E,1,06,1.0,4.6,M,11.3,M,,0000*4C
$GPGSA,A,3,31,30,32,13,23,03,,,,,,,2.0,1.0,1.8*38
$GPRMC,033730.000,A,4332.0724,S,17235.0758,E,0.23,89.79,311010,,*29
$GPGGA,033731.000,4332.0718,S,17235.0759,E,1,07,1.0,1.4,M,11.3,M,,0000*45
$GPGSA,A,3,20,31,30,32,13,23,03,,,,,,2.0,1.0,1.7*35
$GPRMC,033731.000,A,4332.0718,S,17235.0759,E,0.30,144.07,311010,,*1D
$GPGGA,033732.000,4332.0717,S,17235.0755,E,1,07,1.0,-1.2,M,11.3,M,,0000*6E
$GPGSA,A,3,20,31,30,32,13,23,03,,,,,,2.0,1.0,1.7*35
$GPRMC,033732.000,A,4332.0717,S,17235.0755,E,0.15,102.57,311010,,*1D
$GPGGA,033733.000,4332.0715,S,17235.0749,E,1,07,1.0,-4.1,M,11.3,M,,0000*66
$GPGSA,A,3,20,31,30,32,13,23,03,,,,,,2.0,1.0,1.7*35
$GPRMC,033733.000,A,4332.0715,S,17235.0749,E,0.89,262.86,311010,,*1F
$GPGGA,033734.000,4332.0710,S,17235.0744,E,1,07,1.0,-4.8,M,11.3,M,,0000*60
$GPGSA,A,3,20,31,30,32,13,23,03,,,,,,2.0,1.0,1.7*35
$GPGSV,3,1,11,16,64,040,,23,55,230,24,20,48,308,17,32,41,346,18*73
$GPGSV,3,2,11,31,36,119,20,13,23,236,23,30,10,139,23,29,09,135,26*78
$GPGSV,3,3,11,06,07,036,23,03,05,024,26,04,02,225,*4B
$GPRMC,033734.000,A,4332.0710,S,17235.0744,E,0.75,276.84,311010,,*14
$GPGGA,033735.000,4332.0705,S,17235.0742,E,1,07,1.0,-5.9,M,11.3,M,,0000*63
$GPGSA,A,3,20,31,30,32,13,23,03,,,,,,2.0,1.0,1.7*35
$GPRMC,033735.000,A,4332.0705,S,17235.0742,E,0.53,266.66,311010,,*1E
$GPGGA,033736.000,4332.0702,S,17235.0750,E,1,07,1.0,-5.8,M,11.3,M,,0000*65
$GPGSA,A,3,20,31,30,32,13,23,03,,,,,,2.0,1.0,1.7*35
$GPRMC,033736.000,A,4332.0702,S,17235.0750,E,0.25,271.82,311010,,*14
$GPGGA,033737.000,4332.0698,S,17235.0759,E,1,07,1.0,-4.8,M,11.3,M,,0000*6E
$GPGSA,A,3,20,31,30,32,13,23,03,,,,,,2.0,1.0,1.7*35
$GPRMC,033737.000,A,4332.0698,S,17235.0759,E,0.23,50.59,311010,,*2F
$GPGGA,033738.000,4332.0699,S,17235.0765,E,1,07,1.0,-3.2,M,11.3,M,,0000*62
$GPGSA,A,3,20,31,30,32,13,23,03,,,,,,2.0,1.0,1.7*35
$GPRMC,033738.000,A,4332.0699,S,17235.0765,E,0.50,124.16,311010,,*13
$GPGGA,033739.000,4332.0699,S,17235.0771,E,1,07,1.0,-2.4,M,11.3,M,,0000*61
$GPGSA,A,3,20,31,30,32,13,23,03,,,,,,2.0,1.0,1.7*35
$GPGSV,3,1,11,16,64,040,,23,55,230,24,20,48,308,17,32,41,346,19*72
$GPGSV,3,2,11,31,36,119,21,13,23,236,23,30,10,139,24,29,09,135,26*7E
$GPGSV,3,3,11,06,07,036,24,03,05,024,26,04,02,225,*4C
$GPRMC,033739.000,A,4332.0699,S,17235.0771,E,0.29,271.49,311010,,*10
$GPGGA,033740.000,4332.0699,S,17235.0773,E,1,07,1.0,-1.8,M,11.3,M,,0000*62
$GPGSA,A,3,20,31,30,32,13,23,03,,,,,,2.0,1.0,1.7*35
$GPRMC,033740.000,A,4332.0699,S,17235.0773,E,0.46,246.97,311010,,*12
$GPGGA,033741.000,4332.0698,S,17235.0771,E,1,06,1.1,-2.3,M,11.3,M,,0000*68
$GPGSA,A,3,20,31,30,13,23,03,,,,,,,2.1,1.1,1.8*3B
$GPRMC,033741.000,A,4332.0698,S,17235.0771,E,0.18,319.27,311010,,*1B
$GPGGA,033742.000,4332.0696,S,17235.0775,E,1,07,1.0,-2.4,M,11.3,M,,0000*66
$GPGSA,A,3,20,31,30,32,13,23,03,,,,,,2.0,1.0,1.7*35
$GPRMC,033742.000,A,4332.0696,S,17235.0775,E,0.41,87.68,311010,,*21
$GPGGA,033743.000,4332.0694,S,17235.0778,E,1,07,1.0,-1.9,M,11.3,M,,0000*66
$GPGSA,A,3,20,31,30,32,13,23,03,,,,,,2.0,1.0,1.7*35
$GPRMC,033743.000,A,4332.0694,S,17235.0778,E,0.68,66.67,311010,,*24
$GPGGA,033744.000,4332.0694,S,17235.0779,E,1,07,1.0,-0.9,M,11.3,M,,0000*61
$GPGSA,A,3,20,31,30,32,13,23,03,,,,,,2.0,1.0,1.7*35
$GPGSV,3,1,12,16,64,040,,23,55,230,24,20,48,308,19,32,41,346,19*7F
$GPGSV,3,2,12,31,36,119,21,13,23,236,22,30,10,139,25,29,09,135,26*7D
$GPGSV,3,3,12,06,07,036,24,03,05,024,26,04,02,225,,42,30,317,25*78
$GPRMC,033744.000,A,4332.0694,S,17235.0779,E,0.30,271.05,311010,,*1F
$GPGGA,033745.000,4332.0691,S,17235.0780,E,1,07,1.0,-0.8,M,11.3,M,,0000*62
$GPGSA,A,3,20,31,30,32,13,23,03,,,,,,2.0,1.0,1.7*35
$GPRMC,033745.000,A,4332.0691,S,17235.0780,E,0.38,78.48,311010,,*27
$GPGGA,033746.000,4332.0690,S,17235.0778,E,1,07,1.0,-0.2,M,11.3,M,,0000*6D
$GPGSA,A,3,20,31,30,32,13,23,03,,,,,,2.0,1.0,1.7*35
$GPRMC,033746.000,A,4332.0690,S,17235.0778,E,0.18,139.96,311010,,*17
$GPGGA,033747.000,4332.0692,S,17235.0775,E,1,07,1.0,-1.4,M,11.3,M,,0000*64
$GPGSA,A,3,20,31,30,32,13,23,03,,,,,,2.0,1.0,1.7*35
$GPRMC,033747.000,A,4332.0692,S,17235.0775,E,0.43,165.16,311010,,*16
$GPGGA,033748.000,4332.0693,S,17235.0770,E,1,07,1.0,-2.5,M,11.3,M,,0000*6D
$GPGSA,A,3,20,31,30,32,13,23,03,,,,,,2.0,1.0,1.7*35
$GPRMC,033748.000,A,4332.0693,S,17235.0770,E,0.07,121.74,311010,,*19
$GPGGA,033749.000,4332.0695,S,17235.0770,E,1,07,1.0,-2.4,M,11.3,M,,0000*6B
$GPGSA,A,3,20,31,30,32,13,23,03,,,,,,2.0,1.0,1.7*35
$GPGSV,3,1,12,16,64,040,,23,55,230,24,20,48,308,19,32,41,346,20*75
$GPGSV,3,2,12,31,36,119,21,13,23,236,22,30,10,139,25,29,09,135,26*7D
$GPGSV,3,3,12,06,07,036,24,03,05,024,26,04,02,225,,42,30,317,25*78
$GPRMC,033749.000,A,4332.0695,S,17235.0770,E,0.27,205.72,311010,,*1F
$GPGGA,033750.000,4332.0698,S,17235.0767,E,1,07,1.0,-2.5,M,11.3,M,,0000*69
$GPGSA,A,3,20,31,30,32,13,23,03,,,,,,2.0,1.0,1.7*35
$GPRMC,033750.000,A,4332.0698,S,17235.0767,E,0.33,289.49,311010,,*15
$GPGGA,033751.000,4332.0699,S,17235.0761,E,1,07,1.0,-3.5,M,11.3,M,,0000*6E
$GPGSA,A,3,20,31,30,32,13,23,03,,,,,,2.0,1.0,1.7*35
$GPRMC,033751.000,A,4332.0699,S,17235.0761,E,0.08,116.36,311010,,*16
$GPGGA,033752.000,4332.0697,S,17235.0758,E,1,07,1.0,-4.3,M,11.3,M,,0000*68
$GPGSA,A,3,20,31,30,32,13,23,03,,,,,,2.0,1.0,1.7*35
$GPRMC,033752.000,A,4332.0697,S,17235.0758,E,0.29,351.17,311010,,*10
$GPGGA,033753.000,4332.0698,S,17235.0755,E,1,07,1.0,-6.3,M,11.3,M,,0000*69
$GPGSA,A,3,20,31,30,32,13,23,03,,,,,,2.0,1.0,1.7*35
$GPRMC,033753.000,A,4332.0698,S,17235.0755,E,0.51,262.17,311010,,*1D
$GPGGA,033754.000,4332.0695,S,17235.0757,E,1,07,1.0,-5.9,M,11.3,M,,0000*68
$GPGSA,A,3,20,31,30,32,13,23,03,,,,,,2.0,1.0,1.7*35
$GPGSV,3,1,11,16,64,040,,23,55,230,23,20,48,308,20,32,41,346,22*79
$GPGSV,3,2,11,31,36,119,21,13,23,236,22,30,10,139,25,29,09,135,25*7D
$GPGSV,3,3,11,06,07,036,24,03,05,024,26,04,02,225,*4C
$GPRMC,033754.000,A,4332.0695,S,17235.0757,E,0.36,237.93,311010,,*18
$GPGGA,033755.000,4332.0697,S,17235.0752,E,1,07,1.0,-5.6,M,11.3,M,,0000*61
$GPGSA,A,3,20,31,30,32,13,23,03,,,,,,2.0,1.0,1.7*35
$GPRMC,033755.000,A,4332.0697,S,17235.0752,E,0.20,162.75,311010,,*12
$GPGGA,033756.000,4332.0701,S,17235.0755,E,1,07,1.0,-4.2,M,11.3,M,,0000*6E
$GPGSA,A,3,20,31,30,32,13,23,03,,,,,,2.0,1.0,1.7*35
$GPRMC,033756.000,A,4332.0701,S,17235.0755,E,0.58,177.14,311010,,*14
$GPGGA,033757.000,4332.0705,S,17235.0758,E,1,07,1.0,-2.7,M,11.3,M,,0000*65
$GPGSA,A,3,20,31,30,32,13,23,03,,,,,,2.0,1.0,1.7*35
$GPRMC,033757.000,A,4332.0705,S,17235.0758,E,0.58,109.48,311010,,*1C
$GPGGA,033758.000,4332.0708,S,17235.0765,E,1,07,1.0,-2.5,M,11.3,M,,0000*6B
$GPGSA,A,3,20,31,30,32,13,23,03,,,,,,2.0,1.0,1.7*35
$GPRMC,033758.000,A,4332.0708,S,17235.0765,E,1.16,98.37,311010,,*2A
$GPGGA,033759.000,4332.0708,S,17235.0763,E,1,07,1.0,-3.2,M,11.3,M,,0000*6A
$GPGSA,A,3,20,31,30,32,13,23,03,,,,,,2.0,1.0,1.7*35
$GPGSV,3,1,11,16,64,040,,23,55,230,23,20,48,308,20,32,41,346,22*79
$GPGSV,3,2,11,31,36,119,21,13,23,236,22,30,10,139,25,29,09,135,26*7E
$GPGSV,3,3,11,06,07,036,23,03,05,024,26,04,02,225,*4B
$GPRMC,033759.000,A,4332.0708,S,17235.0763,E,0.84,121.38,311010,,*1B
$GPGGA,033800.000,4332.0713,S,17235.0767,E,1,07,1.0,-3.2,M,11.3,M,,0000*67
$GPGSA,A,3,20,31,30,32,13,23,03,,,,,,2.0,1.0,1.7*35
$GPRMC,033800.000,A,4332.0713,S,17235.0767,E,0.64,125.49,311010,,*1A
$GPGGA,033801.000,4332.0718,S,17235.0771,E,1,07,1.0,-2.6,M,11.3,M,,0000*6F
$GPGSA,A,3,20,31,30,32,13,23,03,,,,,,2.0,1.0,1.7*35
$GPRMC,033801.000,A,4332.0718,S,17235.0771,E,0.57,128.48,311010,,*1B
$GPGGA,033802.000,4332.0717,S,17235.0777,E,1,07,1.0,-1.7,M,11.3,M,,0000*67
$GPGSA,A,3,20,31,30,32,13,23,03,,,,,,2.0,1.0,1.7*35
$GPRMC,033802.000,A,4332.0717,S,17235.0777,E,0.14,359.19,311010,,*16
$GPGGA,033803.000,4332.0717,S,17235.0785,E,1,08,0.9,-0.3,M,11.3,M,,0000*69
$GPGSA,A,3,20,31,30,32,13,16,23,03,,,,,1.7,0.9,1.4*3D
$GPRMC,033803.000,A,4332.0717,S,17235.0785,E,0.66,92.19,311010,,*2B
$GPGGA,033804.000,4332.0719,S,17235.0793,E,1,08,0.9,1.7,M,11.3,M,,0000*4F
$GPGSA,A,3,20,31,30,32,13,16,23,03,,,,,1.7,0.9,1.4*3D
$GPGSV,3,1,11,16,64,040,15,23,55,230,23,20,48,308,20,32,41,346,23*7C
$GPGSV,3,2,11,31,36,119,20,13,23,236,23,30,10,139,24,29,09,135,26*7F
$GPGSV,3,3,11,06,07,036,23,03,05,024,26,04,02,225,*4B
$GPRMC,033804.000,A,4332.0719,S,17235.0793,E,1.25,99.60,311010,,*26
$GPGGA,033805.000,4332.0721,S,17235.0800,E,1,08,0.9,3.1,M,11.3,M,,0000*44
$GPGSA,A,3,20,31,30,32,13,16,23,03,,,,,1.7,0.9,1.4*3D
$GPRMC,033805.000,A,4332.0721,S,17235.0800,E,0.76,104.37,311010,,*19
$GPGGA,033806.000,4332.0721,S,17235.0807,E,1,08,0.9,4.4,M,11.3,M,,0000*42
$GPGSA,A,3,20,31,30,32,13,16,23,03,,,,,1.7,0.9,1.4*3D
$GPRMC,033806.000,A,4332.0721,S,17235.0807,E,0.90,103.86,311010,,*18
$GPGGA,033807.000,4332.0721,S,17235.0814,E,1,08,0.9,5.9,M,11.3,M,,0000*4D
$GPGSA,A,3,20,31,30,32,13,16,23,03,,,,,1.7,0.9,1.4*3D
$GPRMC,033807.000,A,4332.0721,S,17235.0814,E,0.68,96.53,311010,,*29
$GPGGA,033808.000,4332.0721,S,17235.0820,E,1,08,0.9,7.1,M,11.3,M,,0000*4F
$GPGSA,A,3,20,31,30,32,13,16,23,03,,,,,1.7,0.9,1.4*3D
$GPRMC,033808.000,A,4332.0721,S,17235.0820,E,0.92,106.86,311010,,*14
$GPGGA,033809.000,4332.0722,S,17235.0823,E,1,08,0.9,8.0,M,11.3,M,,0000*40
$GPGSA,A,3,20,31,30,32,13,16,23,03,,,,,1.7,0.9,1.4*3D
$GPGSV,3,1,11,16,64,040,16,23,55,230,23,20,48,308,20,32,41,346,24*78
$GPGSV,3,2,11,31,36,119,19,13,23,236,23,30,10,139,24,29,09,135,26*75
$GPGSV,3,3,11,06,07,036,23,03,05,024,26,04,02,225,*4B
$GPRMC,033809.000,A,4332.0722,S,17235.0823,E,0.16,155.07,311010,,*16
$GPGGA,033810.000,4332.0720,S,17235.0822,E,1,08,0.9,7.4,M,11.3,M,,0000*40
$GPGSA,A,3,20,31,30,32,13,16,23,03,,,,,1.7,0.9,1.4*3D
$GPRMC,033810.000,A,4332.0720,S,17235.0822,E,0.48,97.49,311010,,*23
$GPGGA,033811.000,4332.0718,S,17235.0826,E,1,08,0.9,7.7,M,11.3,M,,0000*4D
$GPGSA,A,3,20,31,30,32,13,16,23,03,,,,,1.7,0.9,1.4*3D
$GPRMC,033811.000,A,4332.0718,S,17235.0826,E,0.54,98.36,311010,,*27
$GPGGA,033812.000,4332.0721,S,17235.0831,E,1,08,0.9,9.5,M,11.3,M,,0000*4E
$GPGSA,A,3,20,31,30,32,13,16,23,03,,,,,1.7,0.9,1.4*3D
$GPRMC,033812.000,A,4332.0721,S,17235.0831,E,0.58,134.01,311010,,*17
$GPGGA,033813.000,4332.0722,S,17235.0833,E,1,07,1.1,9.7,M,11.3,M,,0000*4A
$GPGSA,A,3,20,30,32,13,16,23,03,,,,,,1.8,1.1,1.4*39
$GPRMC,033813.000,A,4332.0722,S,17235.0833,E,0.84,99.32,311010,,*20
$GPGGA,033814.000,4332.0719,S,17235.0837,E,1,07,1.1,10.6,M,11.3,M,,0000*78
$GPGSA,A,3,20,30,32,13,16,23,03,,,,,,1.8,1.1,1.4*39
$GPGSV,3,1,12,16,64,040,17,23,55,230,22,20,48,308,18,32,41,346,23*77
$GPGSV,3,2,12,31,36,119,09,13,23,236,24,30,10,139,24,29,09,135,26*70
$GPGSV,3,3,12,06,07,036,23,03,05,024,26,04,02,225,,42,30,317,24*7E
$GPRMC,033814.000,A,4332.0719,S,17235.0837,E,0.64,68.71,311010,,*2C
$GPGGA,033815.000,4332.0720,S,17235.0840,E,1,06,1.1,11.8,M,11.3,M,,0000*7D
$GPGSA,A,3,30,32,13,16,23,03,,,,,,,1.8,1.1,1.4*3B
$GPRMC,033815.000,A,4332.0720,S,17235.0840,E,0.47,81.51,311010,,*23
$GPGGA,033816.000,4332.0720,S,17235.0838,E,1,05,1.4,12.2,M,11.3,M,,0000*7E
$GPGSA,A,3,30,32,13,23,03,,,,,,,,2.6,1.4,2.2*31
$GPRMC,033816.000,A,4332.0720,S,17235.0838,E,0.38,224.82,311010,,*14
$GPGGA,033817.000,4332.0721,S,17235.0834,E,1,06,1.1,12.9,M,11.3,M,,0000*7F
$GPGSA,A,3,30,32,13,16,23,03,,,,,,,1.8,1.1,1.4*3B
$GPRMC,033817.000,A,4332.0721,S,17235.0834,E,0.53,222.38,311010,,*12
$GPGGA,033818.000,4332.0724,S,17235.0831,E,1,06,1.1,12.6,M,11.3,M,,0000*7F
$GPGSA,A,3,30,32,13,16,23,03,,,,,,,1.8,1.1,1.4*3B
$GPRMC,033818.000,A,4332.0724,S,17235.0831,E,0.50,195.68,311010,,*14
$GPGGA,033819.000,4332.0727,S,17235.0829,E,1,06,1.1,11.7,M,11.3,M,,0000*76
$GPGSA,A,3,30,32,13,16,23,03,,,,,,,1.8,1.1,1.4*3B
$GPGSV,3,1,11,16,64,040,19,23,55,230,21,20,48,308,,32,41,346,23*70
$GPGSV,3,2,11,31,36,119,,13,23,236,24,30,10,139,24,29,09,135,27*7B
$GPGSV,3,3,11,06,07,036,23,03,05,024,25,04,02,225,*48
$GPRMC,033819.000,A,4332.0727,S,17235.0829,E,0.43,144.53,311010,,*19
$GPGGA,033820.000,4332.0725,S,17235.0826,E,1,06,1.1,11.5,M,11.3,M,,0000*73
$GPGSA,A,3,30,32,13,16,23,03,,,,,,,1.8,1.1,1.4*3B
$GPRMC,033820.000,A,4332.0725,S,17235.0826,E,0.22,3.87,311010,,*12
$GPGGA,033821.000,4332.0725,S,17235.0826,E,1,06,1.1,10.7,M,11.3,M,,0000*71
$GPGSA,A,3,30,32,13,16,23,03,,,,,,,1.8,1.1,1.4*3B
$GPRMC,033821.000,A,4332.0725,S,17235.0826,E,0.22,21.76,311010,,*2D
$GPGGA,033822.000,4332.0728,S,17235.0827,E,1,06,1.1,11.7,M,11.3,M,,0000*7F
$GPGSA,A,3,30,32,13,16,23,03,,,,,,,1.8,1.1,1.4*3B
$GPRMC,033822.000,A,4332.0728,S,17235.0827,E,0.29,267.79,311010,,*16
$GPGGA,033823.000,4332.0729,S,17235.0824,E,1,06,1.1,10.6,M,11.3,M,,0000*7C
$GPGSA,A,3,30,32,13,16,23,03,,,,,,,1.8,1.1,1.4*3B
$GPRMC,033823.000,A,4332.0729,S,17235.0824,E,0.41,212.17,311010,,*11
$GPGGA,033824.000,4332.0727,S,17235.0824,E,1,06,1.1,10.3,M,11.3,M,,0000*70
$GPGSA,A,3,30,32,13,16,23,03,,,,,,,1.8,1.1,1.4*3B
$GPGSV,3,1,11,16,64,040,19,23,55,230,20,20,48,308,,32,41,346,22*70
$GPGSV,3,2,11,31,36,119,,13,23,236,25,30,10,139,24,29,09,135,27*7A
$GPGSV,3,3,11,06,07,036,23,03,05,024,25,04,02,225,*48
$GPRMC,033824.000,A,4332.0727,S,17235.0824,E,0.25,92.27,311010,,*23
$GPGGA,033825.000,4332.0723,S,17235.0822,E,1,06,1.1,10.2,M,11.3,M,,0000*72
$GPGSA,A,3,30,32,13,16,23,03,,,,,,,1.8,1.1,1.4*3B
$GPRMC,033825.000,A,4332.0723,S,17235.0822,E,0.38,103.28,311010,,*1A
$GPGGA,033826.000,4332.0722,S,17235.0823,E,1,06,1.1,10.5,M,11.3,M,,0000*76
$GPGSA,A,3,30,32,13,16,23,03,,,,,,,1.8,1.1,1.4*3B
$GPRMC,033826.000,A,4332.0722,S,17235.0823,E,0.08,154.45,311010,,*13
$GPGGA,033827.000,4332.0722,S,17235.0829,E,1,06,1.1,11.7,M,11.3,M,,0000*7E
$GPGSA,A,3,30,32,13,16,23,03,,,,,,,1.8,1.1,1.4*3B
$GPRMC,033827.000,A,4332.0722,S,17235.0829,E,0.30,55.36,311010,,*27
$GPGGA,033828.000,4332.0723,S,17235.0834,E,1,06,1.1,11.7,M,11.3,M,,0000*7C
$GPGSA,A,3,30,32,13,16,23,03,,,,,,,1.8,1.1,1.4*3B
$GPRMC,033828.000,A,4332.0723,S,17235.0834,E,1.02,111.45,311010,,*10
$GPGGA,033829.000,4332.0725,S,17235.0836,E,1,05,1.2,12.0,M,11.3,M,,0000*7D
$GPGSA,A,3,30,13,16,23,03,,,,,,,,1.9,1.2,1.5*39
$GPGSV,3,1,11,16,64,040,19,23,55,230,17,20,48,308,,32,41,346,19*7C
$GPGSV,3,2,11,31,36,119,,13,23,236,25,30,10,139,24,29,09,135,26*7B
$GPGSV,3,3,11,06,07,036,23,03,05,024,25,04,02,225,*48
$GPRMC,033829.000,A,4332.0725,S,17235.0836,E,0.95,111.27,311010,,*1E
$GPGGA,033830.000,4332.0727,S,17235.0833,E,1,06,1.1,11.1,M,11.3,M,,0000*70
$GPGSA,A,3,30,32,13,16,23,03,,,,,,,1.8,1.1,1.4*3B
$GPRMC,033830.000,A,4332.0727,S,17235.0833,E,0.16,149.02,311010,,*10
$GPGGA,033831.000,4332.0725,S,17235.0826,E,1,06,1.1,10.1,M,11.3,M,,0000*76
$GPGSA,A,3,30,32,13,16,23,03,,,,,,,1.8,1.1,1.4*3B
$GPRMC,033831.000,A,4332.0725,S,17235.0826,E,0.26,13.42,311010,,*2E
$GPGGA,033832.000,4332.0728,S,17235.0829,E,1,05,1.2,9.9,M,11.3,M,,0000*47
$GPGSA,A,3,30,32,13,16,03,,,,,,,,2.0,1.2,1.6*30
$GPRMC,033832.000,A,4332.0728,S,17235.0829,E,0.84,135.76,311010,,*15
$GPGGA,033833.000,4332.0726,S,17235.0825,E,1,05,1.2,8.1,M,11.3,M,,0000*4D
$GPGSA,A,3,30,32,13,16,03,,,,,,,,2.0,1.2,1.6*30
$GPRMC,033833.000,A,4332.0726,S,17235.0825,E,0.12,178.41,311010,,*14
$GPGGA,033834.000,4332.0726,S,17235.0822,E,1,05,1.2,7.5,M,11.3,M,,0000*46
$GPGSA,A,3,30,32,13,16,03,,,,,,,,2.0,1.2,1.6*30
$GPGSV,3,1,11,16,64,040,19,23,55,230,,20,48,308,,32,41,346,17*74
$GPGSV,3,2,11,31,36,119,,13,23,236,25,30,10,139,23,29,09,135,26*7C
$GPGSV,3,3,11,06,07,036,23,03,05,024,25,04,02,225,*48
$GPRMC,033834.000,A,4332.0726,S,17235.0822,E,0.11,188.57,311010,,*1F
$GPGGA,033835.000,4332.0722,S,17235.0813,E,1,05,1.2,6.0,M,11.3,M,,0000*45
$GPGSA,A,3,30,32,13,16,03,,,,,,,,2.0,1.2,1.6*30
$GPRMC,033835.000,A,4332.0722,S,17235.0813,E,0.28,282.15,311010,,*1D
$GPGGA,033836.000,4332.0722,S,17235.0816,E,1,05,1.2,6.7,M,11.3,M,,0000*44
$GPGSA,A,3,30,32,13,16,03,,,,,,,,2.0,1.2,1.6*30
$GPRMC,033836.000,A,4332.0722,S,17235.0816,E,0.36,316.39,311010,,*16
$GPGGA,033837.000,4332.0718,S,17235.0818,E,1,05,1.2,7.1,M,11.3,M,,0000*45
$GPGSA,A,3,30,32,13,16,03,,,,,,,,2.0,1.2,1.6*30
$GPRMC,033837.000,A,4332.0718,S,17235.0818,E,0.27,106.87,311010,,*16
$GPGGA,033838.000,4332.0717,S,17235.0821,E,1,05,1.2,6.9,M,11.3,M,,0000*46
$GPGSA,A,3,30,32,13,16,03,,,,,,,,2.0,1.2,1.6*30
$GPRMC,033838.000,A,4332.0717,S,17235.0821,E,0.24,192.29,311010,,*16
$GPGGA,033839.000,4332.0714,S,17235.0826,E,1,05,1.2,7.3,M,11.3,M,,0000*48
$GPGSA,A,3,30,32,13,16,03,,,,,,,,2.0,1.2,1.6*30
$GPGSV,3,1,11,16,64,040,19,23,55,230,,20,48,308,,32,41,346,23*73
$GPGSV,3,2,11,31,36,119,,13,23,236,20,30,10,139,23,29,09,135,21*7E
$GPGSV,3,3,11,06,07,036,23,03,05,024,26,04,02,225,*4B
$GPRMC,033839.000,A,4332.0714,S,17235.0826,E,0.68,93.07,311010,,*27
$GPGGA,033840.000,4332.0711,S,17235.0836,E,1,05,1.2,9.3,M,11.3,M,,0000*4C
$GPGSA,A,3,30,32,13,16,03,,,,,,,,2.0,1.2,1.6*30
$GPRMC,033840.000,A,4332.0711,S,17235.0836,E,2.02,72.67,311010,,*2A
$GPGGA,033841.000,4332.0706,S,17235.0833,E,1,07,1.0,10.1,M,11.3,M,,0000*74
$GPGSA,A,3,20,30,32,13,16,31,03,,,,,,1.7,1.0,1.4*34
$GPRMC,033841.000,A,4332.0706,S,17235.0833,E,0.36,28.41,311010,,*26
$GPGGA,033842.000,4332.0701,S,17235.0823,E,1,08,0.9,9.8,M,11.3,M,,0000*47
$GPGSA,A,3,23,20,30,32,13,16,31,03,,,,,1.7,0.9,1.4*3D
$GPRMC,033842.000,A,4332.0701,S,17235.0823,E,0.66,264.08,311010,,*11
$GPGGA,033843.000,4332.0696,S,17235.0807,E,1,08,0.9,9.3,M,11.3,M,,0000*44
$GPGSA,A,3,23,20,30,32,13,16,31,03,,,,,1.7,0.9,1.4*3D
$GPRMC,033843.000,A,4332.0696,S,17235.0807,E,0.60,306.78,311010,,*1D
$GPGGA,033844.000,4332.0698,S,17235.0807,E,1,08,0.9,9.7,M,11.3,M,,0000*49
$GPGSA,A,3,23,20,30,32,13,16,31,03,,,,,1.7,0.9,1.4*3D
$GPGSV,3,1,11,16,64,040,15,23,55,230,21,20,48,308,24,32,41,346,24*7D
$GPGSV,3,2,11,31,36,119,21,13,23,236,29,30,10,139,17,29,09,135,19*78
$GPGSV,3,3,11,06,07,036,23,03,05,024,40,04,02,225,18*42
$GPRMC,033844.000,A,4332.0698,S,17235.0807,E,0.27,299.89,311010,,*1E
$GPGGA,033845.000,4332.0696,S,17235.0798,E,1,08,0.9,8.7,M,11.3,M,,0000*4E
$GPGSA,A,3,23,20,30,32,13,16,31,03,,,,,1.7,0.9,1.4*3D
$GPRMC,033845.000,A,4332.0696,S,17235.0798,E,0.21,280.03,311010,,*14
$GPGGA,033846.000,4332.0691,S,17235.0791,E,1,08,0.9,7.9,M,11.3,M,,0000*42
$GPGSA,A,3,23,20,30,32,13,16,31,03,,,,,1.7,0.9,1.4*3D
$GPRMC,033846.000,A,4332.0691,S,17235.0791,E,0.31,251.36,311010,,*12
$GPGGA,033847.000,4332.0690,S,17235.0779,E,1,08,0.9,8.3,M,11.3,M,,0000*41
$GPGSA,A,3,23,20,30,32,13,16,31,03,,,,,1.7,0.9,1.4*3D
$GPRMC,033847.000,A,4332.0690,S,17235.0779,E,1.18,254.20,311010,,*1C
$GPGGA,033848.000,4332.0692,S,17235.0775,E,1,08,0.9,8.2,M,11.3,M,,0000*41
$GPGSA,A,3,23,20,30,32,13,16,31,03,,,,,1.7,0.9,1.4*3D
$GPRMC,033848.000,A,4332.0692,S,17235.0775,E,0.58,240.72,311010,,*1A
$GPGGA,033849.000,4332.0689,S,17235.0768,E,1,08,0.9,7.5,M,11.3,M,,0000*4E
$GPGSA,A,3,23,20,30,32,13,16,31,03,,,,,1.7,0.9,1.4*3D
$GPGSV,3,1,11,16,64,040,17,23,55,230,20,20,48,308,24,32,41,346,24*7E
$GPGSV,3,2,11,31,36,119,21,13,23,236,17,30,10,139,18,29,09,135,*72
$GPGSV,3,3,11,06,07,036,22,03,05,024,34,04,02,225,*49
$GPRMC,033849.000,A,4332.0689,S,17235.0768,E,1.23,241.05,311010,,*11
$GPGGA,033850.000,4332.0691,S,17235.0765,E,1,06,1.0,6.7,M,11.3,M,,0000*47
$GPGSA,A,3,20,30,13,16,31,03,,,,,,,1.8,1.0,1.5*3B
$GPRMC,033850.000,A,4332.0691,S,17235.0765,E,0.71,221.52,311010,,*1F
$GPGGA,033851.000,4332.0691,S,17235.0776,E,1,06,1.0,7.9,M,11.3,M,,0000*4B
$GPGSA,A,3,20,30,13,16,31,03,,,,,,,1.8,1.0,1.5*3B
$GPRMC,033851.000,A,4332.0691,S,17235.0776,E,0.61,128.95,311010,,*1C
$GPGGA,033852.000,4332.0691,S,17235.0769,E,1,07,1.0,7.0,M,11.3,M,,0000*4E
$GPGSA,A,3,23,20,30,13,16,31,03,,,,,,1.7,1.0,1.4*34
$GPRMC,033852.000,A,4332.0691,S,17235.0769,E,0.38,260.01,311010,,*1F
$GPGGA,033853.000,4332.0689,S,17235.0772,E,1,06,1.1,8.3,M,11.3,M,,0000*40
$GPGSA,A,3,23,30,13,16,31,03,,,,,,,1.8,1.1,1.4*38
$GPRMC,033853.000,A,4332.0689,S,17235.0772,E,0.87,115.87,311010,,*16
$GPGGA,033854.000,4332.0689,S,17235.0766,E,1,06,1.2,7.7,M,11.3,M,,0000*4A
$GPGSA,A,3,23,20,13,16,31,03,,,,,,,2.0,1.2,1.6*33
$GPGSV,3,1,11,16,64,040,17,23,55,230,14,20,48,308,17,32,41,346,*7F
$GPGSV,3,2,11,31,36,119,20,13,23,236,24,30,10,139,08,29,09,135,*72
$GPGSV,3,3,11,06,07,036,19,03,05,024,34,04,02,225,*41
$GPRMC,033854.000,A,4332.0689,S,17235.0766,E,0.98,163.79,311010,,*1A
$GPGGA,033855.000,4332.0688,S,17235.0760,E,1,06,1.2,7.9,M,11.3,M,,0000*42
$GPGSA,A,3,23,20,13,16,31,03,,,,,,,2.0,1.2,1.6*33
$GPRMC,033855.000,A,4332.0688,S,17235.0760,E,0.57,188.66,311010,,*14
$GPGGA,033856.000,4332.0691,S,17235.0756,E,1,05,1.4,8.1,M,11.3,M,,0000*4E
$GPGSA,A,3,23,20,30,13,03,,,,,,,,2.7,1.4,2.3*32
$GPRMC,033856.000,A,4332.0691,S,17235.0756,E,1.51,190.53,311010,,*12
$GPGGA,033857.000,4332.0690,S,17235.0750,E,1,08,0.9,8.1,M,11.3,M,,0000*49
$GPGSA,A,3,23,32,20,30,13,16,31,03,,,,,1.7,0.9,1.4*3D
$GPRMC,033857.000,A,4332.0690,S,17235.0750,E,1.03,185.88,311010,,*11
$GPGGA,033858.000,4332.0692,S,17235.0750,E,1,07,1.0,8.6,M,11.3,M,,0000*44
$GPGSA,A,3,32,20,30,13,16,31,03,,,,,,1.7,1.0,1.4*34
$GPRMC,033858.000,A,4332.0692,S,17235.0750,E,0.97,161.53,311010,,*1C
$GPGGA,033859.000,4332.0692,S,17235.0752,E,1,08,0.9,9.0,M,11.3,M,,0000*47
$GPGSA,A,3,23,32,20,30,13,16,31,03,,,,,1.7,0.9,1.4*3D
$GPGSV,3,1,11,16,64,040,27,23,55,230,35,20,48,308,42,32,41,346,40*7B
$GPGSV,3,2,11,31,36,119,24,13,23,236,36,30,10,139,16,29,09,135,*7A
$GPGSV,3,3,11,06,07,036,25,03,05,024,25,04,02,225,*4E
$GPRMC,033859.000,A,4332.0692,S,17235.0752,E,0.52,331.09,311010,,*1E
$GPGGA,033900.000,4332.0691,S,17235.0751,E,1,08,0.9,9.6,M,11.3,M,,0000*4C
$GPGSA,A,3,23,32,20,30,13,16,31,03,,,,,1.7,0.9,1.4*3D
$GPRMC,033900.000,A,4332.0691,S,17235.0751,E,1.01,314.30,311010,,*19
$GPGGA,033901.000,4332.0689,S,17235.0750,E,1,08,0.9,10.4,M,11.3,M,,0000*7F
$GPGSA,A,3,23,32,20,30,13,16,31,03,,,,,1.7,0.9,1.4*3D
$GPRMC,033901.000,A,4332.0689,S,17235.0750,E,1.53,318.55,311010,,*18
$GPGGA,033902.000,4332.0685,S,17235.0747,E,1,08,0.9,11.3,M,11.3,M,,0000*70
$GPGSA,A,3,23,32,20,30,13,16,31,03,,,,,1.7,0.9,1.4*3D
$GPRMC,033902.000,A,4332.0685,S,17235.0747,E,2.30,324.94,311010,,*15
$GPGGA,033903.000,4332.0682,S,17235.0748,E,1,08,0.9,11.8,M,11.3,M,,0000*72
$GPGSA,A,3,23,32,20,30,13,16,31,03,,,,,1.7,0.9,1.4*3D
$GPRMC,033903.000,A,4332.0682,S,17235.0748,E,1.91,356.07,311010,,*1B
$GPGGA,033904.000,4332.0677,S,17235.0752,E,1,08,0.9,12.1,M,11.3,M,,0000*7E
$GPGSA,A,3,23,32,20,30,13,16,31,03,,,,,1.7,0.9,1.4*3D
$GPGSV,3,1,11,16,64,040,44,23,55,230,44,20,48,308,41,32,41,346,40*7B
$GPGSV,3,2,11,31,36,119,41,13,23,236,43,30,10,139,23,29,09,135,21*7E
$GPGSV,3,3,11,06,07,036,34,03,05,024,40,04,02,225,*4D
$GPRMC,033904.000,A,4332.0677,S,17235.0752,E,2.09,10.28,311010,,*23
$GPGGA,033905.000,4332.0672,S,17235.0755,E,1,08,0.9,12.3,M,11.3,M,,0000*7F
$GPGSA,A,3,23,32,20,30,13,16,31,03,,,,,1.7,0.9,1.4*3D
$GPRMC,033905.000,A,4332.0672,S,17235.0755,E,2.09,19.26,311010,,*27
$GPGGA,033906.000,4332.0667,S,17235.0759,E,1,08,0.9,12.4,M,11.3,M,,0000*73
$GPGSA,A,3,23,32,20,30,13,16,31,03,,,,,1.7,0.9,1.4*3D
$GPRMC,033906.000,A,4332.0667,S,17235.0759,E,2.01,25.88,311010,,*2F
$GPGGA,033907.000,4332.0663,S,17235.0764,E,1,08,0.9,12.5,M,11.3,M,,0000*79
$GPGSA,A,3,23,32,20,30,13,16,31,03,,,,,1.7,0.9,1.4*3D
$GPRMC,033907.000,A,4332.0663,S,17235.0764,E,1.81,22.47,311010,,*2B
$GPGGA,033908.000,4332.0659,S,17235.0768,E,1,08,0.9,12.5,M,11.3,M,,0000*73
$GPGSA,A,3,23,32,20,30,13,16,31,03,,,,,1.7,0.9,1.4*3D
$GPRMC,033908.000,A,4332.0659,S,17235.0768,E,1.72,27.55,311010,,*2B
$GPGGA,033909.000,4332.0656,S,17235.0772,E,1,08,0.9,12.6,M,11.3,M,,0000*75
$GPGSA,A,3,23,32,20,30,13,16,31,03,,,,,1.7,0.9,1.4*3D
$GPGSV,3,1,11,16,64,040,43,23,55,230,40,20,48,308,41,32,41,346,37*78
$GPGSV,3,2,11,31,36,119,41,13,23,236,34,30,10,139,24,29,09,135,22*7A
$GPGSV,3,3,11,06,07,036,35,03,05,024,32,04,02,225,*49
$GPRMC,033909.000,A,4332.0656,S,17235.0772,E,1.61,28.17,311010,,*25
$GPGGA,033910.000,4332.0653,S,17235.0775,E,1,08,0.9,12.6,M,11.3,M,,0000*7F
$GPGSA,A,3,23,32,20,30,13,16,31,03,,,,,1.7,0.9,1.4*3D
$GPRMC,033910.000,A,4332.0653,S,17235.0775,E,1.75,25.46,311010,,*23
$GPGGA,033911.000,4332.0649,S,17235.0779,E,1,08,0.9,12.8,M,11.3,M,,0000*77
$GPGSA,A,3,23,32,20,30,13,16,31,03,,,,,1.7,0.9,1.4*3D
$GPRMC,033911.000,A,4332.0649,S,17235.0779,E,1.76,21.60,311010,,*26
$GPGGA,033912.000,4332.0645,S,17235.0781,E,1,08,0.9,12.9,M,11.3,M,,0000*7E
$GPGSA,A,3,23,32,20,30,13,16,31,03,,,,,1.7,0.9,1.4*3D
$GPRMC,033912.000,A,4332.0645,S,17235.0781,E,1.37,19.96,311010,,*29
$GPGGA,033913.000,4332.0642,S,17235.0783,E,1,08,0.9,13.1,M,11.3,M,,0000*73
$GPGSA,A,3,23,32,20,30,13,16,31,03,,,,,1.7,0.9,1.4*3D
$GPRMC,033913.000,A,4332.0642,S,17235.0783,E,1.32,11.64,311010,,*2D
$GPGGA,033914.000,4332.0639,S,17235.0785,E,1,08,0.9,13.1,M,11.3,M,,0000*7E
$GPGSA,A,3,23,32,20,30,13,16,31,03,,,,,1.7,0.9,1.4*3D
$GPGSV,3,1,11,16,64,040,42,23,55,230,43,20,48,308,41,32,41,346,37*7A
$GPGSV,3,2,11,31,36,119,39,13,23,236,34,30,10,139,32,29,09,135,22*72
$GPGSV,3,3,11,06,07,036,30,03,05,024,32,04,02,225,*4C
